,iso_country,coords,name,type,municipality,coords_lon,coords_lat,latlong,display_str
10515,AU,"128.9245, -16.514",Argyle Downs Airport,small_airport,ARGYLE_DOWNS,128.9245,-16.514,"[-16.514, 128.9245]",Argyle Downs Airport | ARGYLE_DOWNS | small_airport
10741,AU,"132.2748, -25.0325",Angus Downs Airport,small_airport,ANGUS_DOWNS_STATION,132.2748,-25.0325,"[-25.0325, 132.2748]",Angus Downs Airport | ANGUS_DOWNS_STATION | small_airport
11574,AU,"120.14700317382812, -33.90850067138672",Hopetoun Airfield,closed,HOPETOUN,120.14700317382812,-33.90850067138672,"[-33.90850067138672, 120.14700317382812]",Hopetoun Airfield | HOPETOUN | closed
11575,AU,"116.074996948, -32.6926994324",Dwellingup Airstrip,small_airport,DWELLINGUP,116.074996948,-32.6926994324,"[-32.6926994324, 116.074996948]",Dwellingup Airstrip | DWELLINGUP | small_airport
11576,AU,"124.584999, -27.155199",Tjukayirla Roadhouse Airstrip,small_airport,,124.584999,-27.155199,"[-27.155199, 124.584999]",Tjukayirla Roadhouse Airstrip |  | small_airport
11577,AU,"115.867866516, -31.9612293243",Langley Park Airstrip,small_airport,PERTH,115.867866516,-31.9612293243,"[-31.9612293243, 115.867866516]",Langley Park Airstrip | PERTH | small_airport
11578,AU,"121.958000183, -33.793701171900004",Myrup fly in estate Airport,small_airport,,121.958000183,-33.793701171900004,"[-33.793701171900004, 121.958000183]",Myrup fly in estate Airport |  | small_airport
11579,AU,"117.865447998, -32.9418449402",Harrismith Airport,small_airport,HARRISMITH,117.865447998,-32.9418449402,"[-32.9418449402, 117.865447998]",Harrismith Airport | HARRISMITH | small_airport
11580,AU,"118.168998718, -32.6721992493",Kulin Airport,small_airport,,118.168998718,-32.6721992493,"[-32.6721992493, 118.168998718]",Kulin Airport |  | small_airport
11581,AU,"136.860992432, -35.370700836199994",Althorpe Lighthouse Airstrip,small_airport,ALTHORPE_ISLANDS,136.860992432,-35.370700836199994,"[-35.370700836199994, 136.860992432]",Althorpe Lighthouse Airstrip | ALTHORPE_ISLANDS | small_airport
11582,AU,"115.885002136, -32.5803985596",Pinjarra North Airstrip,small_airport,PINJARRA,115.885002136,-32.5803985596,"[-32.5803985596, 115.885002136]",Pinjarra North Airstrip | PINJARRA | small_airport
11583,AU,"115.881745219, -32.6665196035",Pinjarra Skydiving Airstrip,small_airport,PINJARRA,115.881745219,-32.6665196035,"[-32.6665196035, 115.881745219]",Pinjarra Skydiving Airstrip | PINJARRA | small_airport
11584,AU,"115.789482594, -32.7874909969",Wheeler Field,small_airport,,115.789482594,-32.7874909969,"[-32.7874909969, 115.789482594]",Wheeler Field |  | small_airport
11585,AU,"115.670883179, -32.7909355164",Lake Clifton Airstrip,small_airport,LAKE_CLIFTON,115.670883179,-32.7909355164,"[-32.7909355164, 115.670883179]",Lake Clifton Airstrip | LAKE_CLIFTON | small_airport
11586,AU,"115.63999938964844, -32.849998474121094",Between Lakes Private Airstrip,small_airport,,115.63999938964844,-32.849998474121094,"[-32.849998474121094, 115.63999938964844]",Between Lakes Private Airstrip |  | small_airport
11587,AU,"113.735583333, -28.43785",Abrolhos East Wallabi Island Airport,small_airport,ABROLHOS,113.735583333,-28.43785,"[-28.43785, 113.735583333]",Abrolhos East Wallabi Island Airport | ABROLHOS | small_airport
11588,AU,"119.331947327, -34.380561828599994",Bremer Bay Airport,small_airport,BREMER_BAY,119.331947327,-34.380561828599994,"[-34.380561828599994, 119.331947327]",Bremer Bay Airport | BREMER_BAY | small_airport
11589,AU,"150.811477661, -31.9711685181",Middlebrook Station Scone Airstrip,small_airport,MIDDLEBROOK_STATION,150.811477661,-31.9711685181,"[-31.9711685181, 150.811477661]",Middlebrook Station Scone Airstrip | MIDDLEBROOK_STATION | small_airport
11590,AU,"118.216148376, -34.2250022888",Lily Dutch Windmill Airstrip,small_airport,,118.216148376,-34.2250022888,"[-34.2250022888, 118.216148376]",Lily Dutch Windmill Airstrip |  | small_airport
11591,AU,"115.700996399, -33.0187988281",Preston Field - Blair Howe,small_airport,,115.700996399,-33.0187988281,"[-33.0187988281, 115.700996399]",Preston Field - Blair Howe |  | small_airport
11592,AU,"147.7194061279297, -41.781700134277344",Avoca Airport,small_airport,AVOCA,147.7194061279297,-41.781700134277344,"[-41.781700134277344, 147.7194061279297]",Avoca Airport | AVOCA | small_airport
11593,AU,"118.08499908447266, -33.17490005493164",Kukerin,small_airport,KUKERIN_WA,118.08499908447266,-33.17490005493164,"[-33.17490005493164, 118.08499908447266]",Kukerin | KUKERIN_WA | small_airport
11594,AU,"118.468002, -22.487101",Karijini National Park,small_airport,,118.468002,-22.487101,"[-22.487101, 118.468002]",Karijini National Park |  | small_airport
11595,AU,"113.80522918701172, -23.10602378845215",Cardabia Station Airstrip,small_airport,INDIGENOUS_LAND_CORPORATION,113.80522918701172,-23.10602378845215,"[-23.10602378845215, 113.80522918701172]",Cardabia Station Airstrip | INDIGENOUS_LAND_CORPORATION | small_airport
11596,AU,"147.44583129882812, -42.16777801513672",Woodbury Airfield,small_airport,,147.44583129882812,-42.16777801513672,"[-42.16777801513672, 147.44583129882812]",Woodbury Airfield |  | small_airport
11597,AU,"142.26422119140625, -38.36196517944336",Port Fairy,small_airport,,142.26422119140625,-38.36196517944336,"[-38.36196517944336, 142.26422119140625]",Port Fairy |  | small_airport
11598,AU,"116.1520004272461, -34.659000396728516",Northcliffe Airstrips (needs confirmation),small_airport,,116.1520004272461,-34.659000396728516,"[-34.659000396728516, 116.1520004272461]",Northcliffe Airstrips (needs confirmation) |  | small_airport
11599,AU,"116.03333282470703, -27.983333587646484",Yuin Station,small_airport,,116.03333282470703,-27.983333587646484,"[-27.983333587646484, 116.03333282470703]",Yuin Station |  | small_airport
11600,AU,"147.86471557617188, -40.899166107177734",Boobyalla Airfield,small_airport,,147.86471557617188,-40.899166107177734,"[-40.899166107177734, 147.86471557617188]",Boobyalla Airfield |  | small_airport
11601,AU,"143.28611755371094, -36.9716682434082",Moonambel Airfield,small_airport,,143.28611755371094,-36.9716682434082,"[-36.9716682434082, 143.28611755371094]",Moonambel Airfield |  | small_airport
11602,AU,"118.18599700927734, -34.312400817871094",Stirling Range Retreat,small_airport,,118.18599700927734,-34.312400817871094,"[-34.312400817871094, 118.18599700927734]",Stirling Range Retreat |  | small_airport
11603,AU,"116.9520034790039, -34.34769821166992",Frankland Valley Vineyard,small_airport,FRANKLAND_VALLEY_VINEYARD_OR_FERNGROVE_WINERY,116.9520034790039,-34.34769821166992,"[-34.34769821166992, 116.9520034790039]",Frankland Valley Vineyard | FRANKLAND_VALLEY_VINEYARD_OR_FERNGROVE_WINERY | small_airport
11604,AU,"116.261314392, -31.6055488586",Avon Valley NP Airstrip,closed,,116.261314392,-31.6055488586,"[-31.6055488586, 116.261314392]",Avon Valley NP Airstrip |  | closed
11605,AU,"147.886885, -35.7626038",Tumbarumba Airport,small_airport,TUMBARUMBA,147.886885,-35.7626038,"[-35.7626038, 147.886885]",Tumbarumba Airport | TUMBARUMBA | small_airport
11606,AU,"115.8176498413086, -28.70870018005371",Tardun Christian Brothers airfield,small_airport,,115.8176498413086,-28.70870018005371,"[-28.70870018005371, 115.8176498413086]",Tardun Christian Brothers airfield |  | small_airport
11607,AU,"151.18368530273438, -33.88933181762695",Royal Prince Alfred Hospital Helipad,heliport,SIDNEY,151.18368530273438,-33.88933181762695,"[-33.88933181762695, 151.18368530273438]",Royal Prince Alfred Hospital Helipad | SIDNEY | heliport
11608,AU,"151.18963623046875, -33.82225036621094",Royal North Shore Hospital Helipad,heliport,SIDNEY,151.18963623046875,-33.82225036621094,"[-33.82225036621094, 151.18963623046875]",Royal North Shore Hospital Helipad | SIDNEY | heliport
11609,AU,"116.21547, -30.96663",New Norcia airstrip,small_airport,NEW_NORCIA,116.21547,-30.96663,"[-30.96663, 116.21547]",New Norcia airstrip | NEW_NORCIA | small_airport
11610,AU,"116.23998642, -30.921002743299997",New Norcia North,small_airport,,116.23998642,-30.921002743299997,"[-30.921002743299997, 116.23998642]",New Norcia North |  | small_airport
11611,AU,"113.5958, -28.299816666699996",Abrolhos North Island,small_airport,,113.5958,-28.299816666699996,"[-28.299816666699996, 113.5958]",Abrolhos North Island |  | small_airport
11612,AU,"113.689184189, -28.4754062982",Abrolhos Island,small_airport,,113.689184189,-28.4754062982,"[-28.4754062982, 113.689184189]",Abrolhos Island |  | small_airport
11613,AU,"152.566575, -26.971128",Kilcoy Airfield,small_airport,KILCOY,152.566575,-26.971128,"[-26.971128, 152.566575]",Kilcoy Airfield | KILCOY | small_airport
11614,AU,"118.055562973, -34.9874643375",Maitraya Resort Airstrip,small_airport,HTTP://WWW.MAITRAYA.COM,118.055562973,-34.9874643375,"[-34.9874643375, 118.055562973]",Maitraya Resort Airstrip | HTTP://WWW.MAITRAYA.COM | small_airport
11615,AU,"114.477367401, -28.071222965900002",Hutt River Airstrip,closed,NAIN,114.477367401,-28.071222965900002,"[-28.071222965900002, 114.477367401]",Hutt River Airstrip | NAIN | closed
11616,AU,"116.147289276, -31.5211908201",Chittering Airstrip,small_airport,CHITTERING,116.147289276,-31.5211908201,"[-31.5211908201, 116.147289276]",Chittering Airstrip | CHITTERING | small_airport
11617,AU,"143.458957672, -37.438747364399994",Trawalla Airport,small_airport,,143.458957672,-37.438747364399994,"[-37.438747364399994, 143.458957672]",Trawalla Airport |  | small_airport
11618,AU,"142.677165, -37.230559",Pomonal Airstrip,small_airport,,142.677165,-37.230559,"[-37.230559, 142.677165]",Pomonal Airstrip |  | small_airport
11619,AU,"137.3, -28.416666666699996",Lake Eyre North,small_airport,,137.3,-28.416666666699996,"[-28.416666666699996, 137.3]",Lake Eyre North |  | small_airport
11620,AU,"114.006564617, -21.884040258800002",Yardie Homestead,small_airport,,114.006564617,-21.884040258800002,"[-21.884040258800002, 114.006564617]",Yardie Homestead |  | small_airport
11621,AU,"118.310833333, -32.664444444400004",Kulin Bush Races Strip,small_airport,KULIN,118.310833333,-32.664444444400004,"[-32.664444444400004, 118.310833333]",Kulin Bush Races Strip | KULIN | small_airport
11622,AU,"153.425833333, -27.3458333333",Kooringal Airstrip,small_airport,,153.425833333,-27.3458333333,"[-27.3458333333, 153.425833333]",Kooringal Airstrip |  | small_airport
11623,AU,"138.493609428, -35.1725454513",Huntfield Airfield,small_airport,MORPHETT_VALE,138.493609428,-35.1725454513,"[-35.1725454513, 138.493609428]",Huntfield Airfield | MORPHETT_VALE | small_airport
11624,AU,"146.853778, -19.161889",Nelly Bay Heliport,heliport,"NELLY_BAY,_MAGNETIC_ISLAND",146.853778,-19.161889,"[-19.161889, 146.853778]","Nelly Bay Heliport | NELLY_BAY,_MAGNETIC_ISLAND | heliport"
11625,AU,"147.672729492, -36.9617573795",Lake Omeo Dry Lake Ultralightport,small_airport,,147.672729492,-36.9617573795,"[-36.9617573795, 147.672729492]",Lake Omeo Dry Lake Ultralightport |  | small_airport
11626,AU,"146.766046286, -37.3485734147",Snowy Range Airfield,small_airport,,146.766046286,-37.3485734147,"[-37.3485734147, 146.766046286]",Snowy Range Airfield |  | small_airport
11627,AU,"146.159431, -37.145053",Delatite Airstrip,small_airport,DELATITE,146.159431,-37.145053,"[-37.145053, 146.159431]",Delatite Airstrip | DELATITE | small_airport
11628,AU,"151.215684, -33.5473",Brooklyn Oval Helicopter Landing Site,heliport,BROOKLYN,151.215684,-33.5473,"[-33.5473, 151.215684]",Brooklyn Oval Helicopter Landing Site | BROOKLYN | heliport
11629,AU,"151.1936, -33.5562",Brooklyn TMC - Olivers Garage Helipad,heliport,BROOKLYN,151.1936,-33.5562,"[-33.5562, 151.1936]",Brooklyn TMC - Olivers Garage Helipad | BROOKLYN | heliport
11630,AU,"153.332, -29.6068",Brooms Head Heliport,heliport,BROOMS_HEAD,153.332,-29.6068,"[-29.6068, 153.332]",Brooms Head Heliport | BROOMS_HEAD | heliport
11631,AU,"147.40036, -33.6553",Cowal Gold Mine Helipad,heliport,WEST_WYALONG,147.40036,-33.6553,"[-33.6553, 147.40036]",Cowal Gold Mine Helipad | WEST_WYALONG | heliport
11632,AU,"148.877856, -23.57128",Blackwater Hospital Helipad,heliport,BLACKWATER,148.877856,-23.57128,"[-23.57128, 148.877856]",Blackwater Hospital Helipad | BLACKWATER | heliport
11633,AU,"153.02759, -27.44993",Royal Brisbane Hospital Helipad Charlie,heliport,BRISBANE,153.02759,-27.44993,"[-27.44993, 153.02759]",Royal Brisbane Hospital Helipad Charlie | BRISBANE | heliport
11634,AU,"151.13098, -29.771624",Inverell Hospital Helipad,heliport,INVERELL,151.13098,-29.771624,"[-29.771624, 151.13098]",Inverell Hospital Helipad | INVERELL | heliport
11635,AU,"150.306706, -33.628062",Blackheath - NPWS Helipad,heliport,BLACKHEATH_-_NPWS,150.306706,-33.628062,"[-33.628062, 150.306706]",Blackheath - NPWS Helipad | BLACKHEATH_-_NPWS | heliport
11636,AU,"153.284455, -28.808344",Lismore - Mortimer Oval Helicopter Landing Site,heliport,LISMORE,153.284455,-28.808344,"[-28.808344, 153.284455]",Lismore - Mortimer Oval Helicopter Landing Site | LISMORE | heliport
11637,AU,"153.288242, -28.801211",Lismore Helibase,heliport,LISMORE,153.288242,-28.801211,"[-28.801211, 153.288242]",Lismore Helibase | LISMORE | heliport
11638,AU,"151.31033, -33.73922",Long Reef Helipad,heliport,COLLAROY,151.31033,-33.73922,"[-33.73922, 151.31033]",Long Reef Helipad | COLLAROY | heliport
11639,AU,"151.8826, -24.1828",Agnes Water SES Grounds HLS,heliport,AGNES_WATER,151.8826,-24.1828,"[-24.1828, 151.8826]",Agnes Water SES Grounds HLS | AGNES_WATER | heliport
11640,AU,"131.10796, -13.2362",Adelaide River Helicopter Landing Site,heliport,ADELAIDE_RIVER,131.10796,-13.2362,"[-13.2362, 131.10796]",Adelaide River Helicopter Landing Site | ADELAIDE_RIVER | heliport
11641,AU,"153.44, -27.4031",Amity Heliport,heliport,AMITY,153.44,-27.4031,"[-27.4031, 153.44]",Amity Heliport | AMITY | heliport
11642,AU,"150.7914, -34.2098",Appin Colliery Helipad,heliport,APPIN,150.7914,-34.2098,"[-34.2098, 150.7914]",Appin Colliery Helipad | APPIN | heliport
11643,AU,"150.05846, -33.26958",Baal Bone Colliery Helipad,heliport,LITHGOW,150.05846,-33.26958,"[-33.26958, 150.05846]",Baal Bone Colliery Helipad | LITHGOW | heliport
11644,AU,"139.792522222, -35.3202777778",Sherlock Ultralight Airfield,small_airport,SHERLOCK,139.792522222,-35.3202777778,"[-35.3202777778, 139.792522222]",Sherlock Ultralight Airfield | SHERLOCK | small_airport
11645,AU,"149.8011, -35.448",Braidwood Helicopter Landing Site,heliport,BRAIDWOOD,149.8011,-35.448,"[-35.448, 149.8011]",Braidwood Helicopter Landing Site | BRAIDWOOD | heliport
11646,AU,"113.79925, -23.47487",Warroora Station Airstrip,small_airport,WARROORA_STATION,113.79925,-23.47487,"[-23.47487, 113.79925]",Warroora Station Airstrip | WARROORA_STATION | small_airport
11647,AU,"147.16922, -38.21962",Longford Heliport,heliport,BASS_STRAIGHT_OIL_AND_GAS_INDUSTRY,147.16922,-38.21962,"[-38.21962, 147.16922]",Longford Heliport | BASS_STRAIGHT_OIL_AND_GAS_INDUSTRY | heliport
11648,AU,"147.3055, -37.0331",Horse Hair Plain Aerodrome,closed,HOTHAM,147.3055,-37.0331,"[-37.0331, 147.3055]",Horse Hair Plain Aerodrome | HOTHAM | closed
11649,AU,"150.829822, -34.234073",West Cliff Colliery Helipad,heliport,APPIN,150.829822,-34.234073,"[-34.234073, 150.829822]",West Cliff Colliery Helipad | APPIN | heliport
11650,AU,"152.79353, -28.61835",Toonumbar Dam Helipad,heliport,,152.79353,-28.61835,"[-28.61835, 152.79353]",Toonumbar Dam Helipad |  | heliport
11651,AU,"153.1056, -29.66",Tucabia Oval Helicopter Landing Site,heliport,TUCABIA,153.1056,-29.66,"[-29.66, 153.1056]",Tucabia Oval Helicopter Landing Site | TUCABIA | heliport
11652,AU,"152.55133, -28.46907",Urbenville Helipad,heliport,URBENVILLE,152.55133,-28.46907,"[-28.46907, 152.55133]",Urbenville Helipad | URBENVILLE | heliport
11653,AU,"151.1635, -34.040487",Wanda Beach Helipad,heliport,CRONULLA,151.1635,-34.040487,"[-34.040487, 151.1635]",Wanda Beach Helipad | CRONULLA | heliport
11654,AU,"152.7156, -24.1129",Lady Elliot Island Airstrip,small_airport,LADY_ELLIOT_ISLAND,152.7156,-24.1129,"[-24.1129, 152.7156]",Lady Elliot Island Airstrip | LADY_ELLIOT_ISLAND | small_airport
11655,AU,"149.51908, -22.09246",Clairview Heliport,heliport,CLAIRVIEW,149.51908,-22.09246,"[-22.09246, 149.51908]",Clairview Heliport | CLAIRVIEW | heliport
11656,AU,"147.63124, -22.82707",Clermont Hospital Helipad,heliport,CLERMONT,147.63124,-22.82707,"[-22.82707, 147.63124]",Clermont Hospital Helipad | CLERMONT | heliport
11657,AU,"153.16415, -27.40104",Brisbane Water Police Helipad,heliport,BRISBANE,153.16415,-27.40104,"[-27.40104, 153.16415]",Brisbane Water Police Helipad | BRISBANE | heliport
11658,AU,"115.225055, -30.577798",Nambung Station Private Airstrip,small_airport,,115.225055,-30.577798,"[-30.577798, 115.225055]",Nambung Station Private Airstrip |  | small_airport
11659,AU,"149.417, -21.9092",Carmila Town Helicopter Landing Site,heliport,CARMILA,149.417,-21.9092,"[-21.9092, 149.417]",Carmila Town Helicopter Landing Site | CARMILA | heliport
11660,AU,"153.2606, -27.5346",Redland Hospital Helicopter Landing Site,heliport,CLEVELAND,153.2606,-27.5346,"[-27.5346, 153.2606]",Redland Hospital Helicopter Landing Site | CLEVELAND | heliport
11661,AU,"153.4092, -27.8239",Couran Cove Resort Helipad,heliport,COURAN_COVE_RESORT,153.4092,-27.8239,"[-27.8239, 153.4092]",Couran Cove Resort Helipad | COURAN_COVE_RESORT | heliport
11662,AU,"152.0587, -27.2649",Crows Nest Helipad,heliport,CROWS_NEST,152.0587,-27.2649,"[-27.2649, 152.0587]",Crows Nest Helipad | CROWS_NEST | heliport
11663,AU,"149.338, -23.655",Dingo Airstrip,small_airport,DINGO,149.338,-23.655,"[-23.655, 149.338]",Dingo Airstrip | DINGO | small_airport
11664,AU,"150.2625, -23.8479",Dululu Helicopter Landing Site,heliport,DULULU,150.2625,-23.8479,"[-23.8479, 150.2625]",Dululu Helicopter Landing Site | DULULU | heliport
11665,AU,"148.1539, -23.5166",Emerald Hospital Helicopter Landing Site,heliport,EMERALD,148.1539,-23.5166,"[-23.5166, 148.1539]",Emerald Hospital Helicopter Landing Site | EMERALD | heliport
11666,AU,"153.3154, -24.96",Orchid Beach Resort Helipad,heliport,FRASER_ISLAND,153.3154,-24.96,"[-24.96, 153.3154]",Orchid Beach Resort Helipad | FRASER_ISLAND | heliport
11667,AU,"153.0646, -25.5887",Toby's Gap Airstrip,small_airport,FRASER_ISLAND,153.0646,-25.5887,"[-25.5887, 153.0646]",Toby's Gap Airstrip | FRASER_ISLAND | small_airport
11668,AU,"148.9481, -20.1574",Hook Island Helipad,heliport,HOOK_ISLAND,148.9481,-20.1574,"[-20.1574, 148.9481]",Hook Island Helipad | HOOK_ISLAND | heliport
11669,AU,"148.3585, -21.4888",Hail Creek Mine Heliport,heliport,NEBO,148.3585,-21.4888,"[-21.4888, 148.3585]",Hail Creek Mine Heliport | NEBO | heliport
11670,AU,"152.0658, -26.1795",Goomeri Oval Helicopter Landing Site,heliport,GOOMERI,152.0658,-26.1795,"[-26.1795, 152.0658]",Goomeri Oval Helicopter Landing Site | GOOMERI | heliport
11671,AU,"153.427, -27.97",Gold Coast Water Police Helicopter Landing Site,heliport,GOLD_COAST,153.427,-27.97,"[-27.97, 153.427]",Gold Coast Water Police Helicopter Landing Site | GOLD_COAST | heliport
11672,AU,"148.1153, -21.3608",Glenden Township Heliport,heliport,GLENDEN,148.1153,-21.3608,"[-21.3608, 148.1153]",Glenden Township Heliport | GLENDEN | heliport
11673,AU,"151.24855, -23.8499",Gladstone Hospital Helipad,heliport,GLADSTONE,151.24855,-23.8499,"[-23.8499, 151.24855]",Gladstone Hospital Helipad | GLADSTONE | heliport
11674,AU,"151.3269, -23.7738",Facing Island Farmers Cove Helicopter Landing Site,heliport,GLADSTONE,151.3269,-23.7738,"[-23.7738, 151.3269]",Facing Island Farmers Cove Helicopter Landing Site | GLADSTONE | heliport
11675,AU,"151.3718, -23.8758",Facing Island - Gatcomb Head Helipad,heliport,ROCKHAMPTON,151.3718,-23.8758,"[-23.8758, 151.3718]",Facing Island - Gatcomb Head Helipad | ROCKHAMPTON | heliport
11676,AU,"153.1292, -25.505",Eurong Heliport,heliport,EURONG_RANGER'S_STATION,153.1292,-25.505,"[-25.505, 153.1292]",Eurong Heliport | EURONG_RANGER'S_STATION | heliport
11677,AU,"150.352, -28.6089",Boggabilla Fuel Depot Landing Site,heliport,GOONDIWINDI,150.352,-28.6089,"[-28.6089, 150.352]",Boggabilla Fuel Depot Landing Site | GOONDIWINDI | heliport
11678,AU,"150.3324, -28.6172",Boggabilla Airstrip,small_airport,GOONDIWINDI,150.3324,-28.6172,"[-28.6172, 150.3324]",Boggabilla Airstrip | GOONDIWINDI | small_airport
11679,AU,"114.911043, -28.699218",Valley View,small_airport,GERALDTON,114.911043,-28.699218,"[-28.699218, 114.911043]",Valley View | GERALDTON | small_airport
11680,AU,"115.789526, -32.672544",Midway,small_airport,,115.789526,-32.672544,"[-32.672544, 115.789526]",Midway |  | small_airport
11681,AU,"115.910386, -32.786914",Wheeler Drome,small_airport,,115.910386,-32.786914,"[-32.786914, 115.910386]",Wheeler Drome |  | small_airport
11682,AU,"115.717181, -33.094903",Unknown Farm Strip,small_airport,,115.717181,-33.094903,"[-33.094903, 115.717181]",Unknown Farm Strip |  | small_airport
11683,AU,"132.9142, -11.5494",Murgenella Airstrip,small_airport,MURGANELLA,132.9142,-11.5494,"[-11.5494, 132.9142]",Murgenella Airstrip | MURGANELLA | small_airport
11684,AU,"145.3766, -37.8594",Olinda (DSE) Helibase,heliport,OLINDA_/_MT_DANDENONG,145.3766,-37.8594,"[-37.8594, 145.3766]",Olinda (DSE) Helibase | OLINDA_/_MT_DANDENONG | heliport
11685,AU,"133.347244, -22.652908",Aileron Airstrip,small_airport,ANMATJERE,133.347244,-22.652908,"[-22.652908, 133.347244]",Aileron Airstrip | ANMATJERE | small_airport
11686,AU,"114.45385, -26.407707",Overlander Airport,small_airport,HAMELIN_POOL,114.45385,-26.407707,"[-26.407707, 114.45385]",Overlander Airport | HAMELIN_POOL | small_airport
11687,AU,"150.695005, -32.379816",Denman Farm Strip,small_airport,DENMAN,150.695005,-32.379816,"[-32.379816, 150.695005]",Denman Farm Strip | DENMAN | small_airport
11688,AU,"139.592156, -34.556053",Swan Reach Airport,small_airport,SWAN_REACH,139.592156,-34.556053,"[-34.556053, 139.592156]",Swan Reach Airport | SWAN_REACH | small_airport
11689,AU,"134.4036, -22.801963",Alcoota Station Airport,small_airport,ANMATJERE,134.4036,-22.801963,"[-22.801963, 134.4036]",Alcoota Station Airport | ANMATJERE | small_airport
11690,AU,"135.848699, -13.247423",Balma Airfield,small_airport,,135.848699,-13.247423,"[-13.247423, 135.848699]",Balma Airfield |  | small_airport
11691,AU,"131.495318, -13.376886",Ban Ban Airfield,small_airport,BAN_BAN_SPRINGS,131.495318,-13.376886,"[-13.376886, 131.495318]",Ban Ban Airfield | BAN_BAN_SPRINGS | small_airport
11692,AU,"134.039619, -18.79853",Banka Banka Airstrip,small_airport,TABLELANDS,134.039619,-18.79853,"[-18.79853, 134.039619]",Banka Banka Airstrip | TABLELANDS | small_airport
11693,AU,"135.817344, -13.146384",Baygurrtji Airfield,small_airport,,135.817344,-13.146384,"[-13.146384, 135.817344]",Baygurrtji Airfield |  | small_airport
11694,AU,"136.471556, -12.816959",Birany Birany Airfield,small_airport,,136.471556,-12.816959,"[-12.816959, 136.471556]",Birany Birany Airfield |  | small_airport
11695,AU,"130.429044, -16.119461",Bullita Airfield,small_airport,GREGORY,130.429044,-16.119461,"[-16.119461, 130.429044]",Bullita Airfield | GREGORY | small_airport
11696,AU,"129.348671, -17.996474",Bunda Landing Ground,small_airport,BUNDA_STATION,129.348671,-17.996474,"[-17.996474, 129.348671]",Bunda Landing Ground | BUNDA_STATION | small_airport
11697,AU,"130.961747, -21.499888",Chilla Well Landing Ground,small_airport,,130.961747,-21.499888,"[-21.499888, 130.961747]",Chilla Well Landing Ground |  | small_airport
11698,AU,"134.558959, -15.867686",Cox River Landing Ground,small_airport,ARNOLD,134.558959,-15.867686,"[-15.867686, 134.558959]",Cox River Landing Ground | ARNOLD | small_airport
11699,AU,"130.622849, -12.713254",Crab Claw Island Landing Ground,small_airport,BYNOE,130.622849,-12.713254,"[-12.713254, 130.622849]",Crab Claw Island Landing Ground | BYNOE | small_airport
11700,AU,"135.466661, -12.888913",Donydji Airport,small_airport,EAST_ARNHEM,135.466661,-12.888913,"[-12.888913, 135.466661]",Donydji Airport | EAST_ARNHEM | small_airport
11701,AU,"132.82983, -14.265449",Manyallaluk Airport,small_airport,EVA_VALLEY,132.82983,-14.265449,"[-14.265449, 132.82983]",Manyallaluk Airport | EVA_VALLEY | small_airport
11702,AU,"130.54513, -12.872221",Finniss River Landing Ground,small_airport,BYNOE,130.54513,-12.872221,"[-12.872221, 130.54513]",Finniss River Landing Ground | BYNOE | small_airport
11703,AU,"130.881436, -14.188069",Fish River Landing Ground,small_airport,TIPPERARY,130.881436,-14.188069,"[-14.188069, 130.881436]",Fish River Landing Ground | TIPPERARY | small_airport
11704,AU,"150.039698, -30.710741",Boggabri Hospital Heliport,heliport,BOGGABRI,150.039698,-30.710741,"[-30.710741, 150.039698]",Boggabri Hospital Heliport | BOGGABRI | heliport
11705,AU,"152.625167, -28.738",Bonalbo - Cricket oval HLS,heliport,BONALBO,152.625167,-28.738,"[-28.738, 152.625167]",Bonalbo - Cricket oval HLS | BONALBO | heliport
11706,AU,"148.704667, -34.4435",Boorowa Helicopter Landing Site,heliport,BOOROWA,148.704667,-34.4435,"[-34.4435, 148.704667]",Boorowa Helicopter Landing Site | BOOROWA | heliport
11707,AU,"149.444667, -35.254",Bungendore Helicopter Landing Site,heliport,BUNGENDORE,149.444667,-35.254,"[-35.254, 149.444667]",Bungendore Helicopter Landing Site | BUNGENDORE | heliport
11708,AU,"150.006799, -34.808073",Bungonia NP Heliport,heliport,BUNGONIA,150.006799,-34.808073,"[-34.808073, 150.006799]",Bungonia NP Heliport | BUNGONIA | heliport
11709,AU,"153.467841, -28.436563",Burringbar Sports Club Helicopter Landing Site,heliport,BURRINGBAR,153.467841,-28.436563,"[-28.436563, 153.467841]",Burringbar Sports Club Helicopter Landing Site | BURRINGBAR | heliport
11710,AU,"153.577167, -28.635167",Byron Central Hospital - Cavanbah Sporting Complex HLS,heliport,BYRON_BAY,153.577167,-28.635167,"[-28.635167, 153.577167]",Byron Central Hospital - Cavanbah Sporting Complex HLS | BYRON_BAY | heliport
11711,AU,"130.381982, -12.752131",Dundee Beach First Aid Post Helipad,heliport,DUNDEE_BEACH,130.381982,-12.752131,"[-12.752131, 130.381982]",Dundee Beach First Aid Post Helipad | DUNDEE_BEACH | heliport
11712,AU,"130.529664, -12.770746",Dundee Downs First Aid Post HLS,heliport,DUNDEE_DOWNS,130.529664,-12.770746,"[-12.770746, 130.529664]",Dundee Downs First Aid Post HLS | DUNDEE_DOWNS | heliport
11713,AU,"130.765833, -12.500167",Gerald Farm Airfield,small_airport,,130.765833,-12.500167,"[-12.500167, 130.765833]",Gerald Farm Airfield |  | small_airport
11714,AU,"131.4085, -13.972167",Gypsy Springs - African Mahogany HLS,heliport,,131.4085,-13.972167,"[-13.972167, 131.4085]",Gypsy Springs - African Mahogany HLS |  | heliport
11715,AU,"132.270895, -14.440093",Katherine Hospital Helipad,heliport,KATHERINE,132.270895,-14.440093,"[-14.440093, 132.270895]",Katherine Hospital Helipad | KATHERINE | heliport
11716,AU,"151.745833, -32.401167",Dungog Hospital Helipad,heliport,DUNGOG,151.745833,-32.401167,"[-32.401167, 151.745833]",Dungog Hospital Helipad | DUNGOG | heliport
11717,AU,"150.717167, -34.2185",Appin West Colliery Heliport,heliport,DOUGLAS_PARK,150.717167,-34.2185,"[-34.2185, 150.717167]",Appin West Colliery Heliport | DOUGLAS_PARK | heliport
11718,AU,"150.811172, -33.829553",Aussies - Austral Bricks Helicopter landing Site,heliport,HORSLEY_PARK,150.811172,-33.829553,"[-33.829553, 150.811172]",Aussies - Austral Bricks Helicopter landing Site | HORSLEY_PARK | heliport
11719,AU,"149.065167, -30.951667","Baradine Oval Helicopter landing Site,",heliport,BARADINE,149.065167,-30.951667,"[-30.951667, 149.065167]","Baradine Oval Helicopter landing Site, | BARADINE | heliport"
11720,AU,"152.104758, -26.889483",Blackbutt Helicopter Landing Site,heliport,BLACKBUTT,152.104758,-26.889483,"[-26.889483, 152.104758]",Blackbutt Helicopter Landing Site | BLACKBUTT | heliport
11721,AU,"150.141199, -30.631302",Boggabri Coal Homestead Helipad,heliport,BOGGABRI,150.141199,-30.631302,"[-30.631302, 150.141199]",Boggabri Coal Homestead Helipad | BOGGABRI | heliport
11722,AU,"150.990617, -33.744812",Baulkham Hills Private Hospital Helicopter Landing Site,heliport,BAULKHAM_HILLS,150.990617,-33.744812,"[-33.744812, 150.990617]",Baulkham Hills Private Hospital Helicopter Landing Site | BAULKHAM_HILLS | heliport
11723,AU,"150.512041, -24.393576",Biloela Sports Field Helicopter Landing Site,heliport,BILOELA,150.512041,-24.393576,"[-24.393576, 150.512041]",Biloela Sports Field Helicopter Landing Site | BILOELA | heliport
11724,AU,"130.804757, -13.126329",LNP Florence Buley Rd Intersection Helicopter Landing Site,heliport,LITCHFIELD_NATIONAL_PARK,130.804757,-13.126329,"[-13.126329, 130.804757]",LNP Florence Buley Rd Intersection Helicopter Landing Site | LITCHFIELD_NATIONAL_PARK | heliport
11725,AU,"130.784651, -13.096857",LNP Florence Falls Campground Helicopter Landing Site,heliport,LITCHFIELD_NATIONAL_PARK,130.784651,-13.096857,"[-13.096857, 130.784651]",LNP Florence Falls Campground Helicopter Landing Site | LITCHFIELD_NATIONAL_PARK | heliport
11726,AU,"130.754707, -13.206691",LNP Lost City Gravel Pit Helicopter Landing Site,heliport,LITCHFIELD_NATIONAL_PARK,130.754707,-13.206691,"[-13.206691, 130.754707]",LNP Lost City Gravel Pit Helicopter Landing Site | LITCHFIELD_NATIONAL_PARK | heliport
11727,AU,"130.732069, -13.255235",LNP Sandy Creek Falls Helicopter Landing Site,heliport,LITCHFIELD_NATIONAL_PARK,130.732069,-13.255235,"[-13.255235, 130.732069]",LNP Sandy Creek Falls Helicopter Landing Site | LITCHFIELD_NATIONAL_PARK | heliport
11728,AU,"130.84484, -13.10344",LNP Termite Mounds Carpark Helicopter Landing Site,heliport,LITCHFIELD_NATIONAL_PARK,130.84484,-13.10344,"[-13.10344, 130.84484]",LNP Termite Mounds Carpark Helicopter Landing Site | LITCHFIELD_NATIONAL_PARK | heliport
11729,AU,"130.713733, -13.20268",LNP Tolmer Falls Carpark Helicopter Landing Site,heliport,LITCHFIELD_NATIONAL_PARK,130.713733,-13.20268,"[-13.20268, 130.713733]",LNP Tolmer Falls Carpark Helicopter Landing Site | LITCHFIELD_NATIONAL_PARK | heliport
11730,AU,"130.692571, -13.080815",LNP Walker Creek Ranger Station Helicopter Landing Site,heliport,LITCHFIELD_NATIONAL_PARK,130.692571,-13.080815,"[-13.080815, 130.692571]",LNP Walker Creek Ranger Station Helicopter Landing Site | LITCHFIELD_NATIONAL_PARK | heliport
11731,AU,"130.68168, -13.162404",LNP Wangi Carpark Helicopter Landing Site,heliport,LITCHFIELD_NATIONAL_PARK,130.68168,-13.162404,"[-13.162404, 130.68168]",LNP Wangi Carpark Helicopter Landing Site | LITCHFIELD_NATIONAL_PARK | heliport
11732,AU,"130.891778, -11.763743",Pickertaramoor Oval Helicopter Landing Site,heliport,PICKERTARAMOOR,130.891778,-11.763743,"[-11.763743, 130.891778]",Pickertaramoor Oval Helicopter Landing Site | PICKERTARAMOOR | heliport
11733,AU,"149.068833, -35.670667",Caloola Farm Top Naas Valley Helicopter Landing Site,heliport,CANBERRA,149.068833,-35.670667,"[-35.670667, 149.068833]",Caloola Farm Top Naas Valley Helicopter Landing Site | CANBERRA | heliport
11734,AU,"149.285059, -35.495181",Canberra Training Area C30 Helicopter Landing Site,heliport,CANBERRA,149.285059,-35.495181,"[-35.495181, 149.285059]",Canberra Training Area C30 Helicopter Landing Site | CANBERRA | heliport
11735,AU,"150.098981, -33.352098",Angus Place Colliery Heliport,heliport,LIDSDALE,150.098981,-33.352098,"[-33.352098, 150.098981]",Angus Place Colliery Heliport | LIDSDALE | heliport
11736,AU,"151.023045, -33.926981",Bankstown - City Sports Complex HLS,heliport,BANKSTOWN,151.023045,-33.926981,"[-33.926981, 151.023045]",Bankstown - City Sports Complex HLS | BANKSTOWN | heliport
11737,AU,"152.203333, -32.4055",Bulahdelah Showground Helicopter Landing Site,heliport,BULAHDELAH,152.203333,-32.4055,"[-32.4055, 152.203333]",Bulahdelah Showground Helicopter Landing Site | BULAHDELAH | heliport
11738,AU,"148.261292, -22.039842",Poitrel Mine Helicopter Landing Site,heliport,MORANBAH,148.261292,-22.039842,"[-22.039842, 148.261292]",Poitrel Mine Helicopter Landing Site | MORANBAH | heliport
11739,AU,"148.333417, -36.434153",Charlotte Pass Medical Centre HLS,heliport,CHARLOTTE_PASS,148.333417,-36.434153,"[-36.434153, 148.333417]",Charlotte Pass Medical Centre HLS | CHARLOTTE_PASS | heliport
11740,AU,"150.1955, -35.721",Batemans Bay ALT Hanging Rock HLS,heliport,BATEMANS_BAY,150.1955,-35.721,"[-35.721, 150.1955]",Batemans Bay ALT Hanging Rock HLS | BATEMANS_BAY | heliport
11741,AU,"150.172621, -35.708915",Batemans Bay Mackay Park HLS,heliport,BATEMANS_BAY,150.172621,-35.708915,"[-35.708915, 150.172621]",Batemans Bay Mackay Park HLS | BATEMANS_BAY | heliport
11742,AU,"149.574115, -33.407196",Bathurst Hospital Alternate (Victoria Park) Helipad,heliport,BATHURST,149.574115,-33.407196,"[-33.407196, 149.574115]",Bathurst Hospital Alternate (Victoria Park) Helipad | BATHURST | heliport
11743,AU,"148.377333, -35.939833",Cabramurra Helicopter Landing Site,heliport,CABRAMURRA,148.377333,-35.939833,"[-35.939833, 148.377333]",Cabramurra Helicopter Landing Site | CABRAMURRA | heliport
11744,AU,"149.000842, -33.44435",Cadia Mine(Ridgeway) Helicopter Landing Site,heliport,CADIA_MINE,149.000842,-33.44435,"[-33.44435, 149.000842]",Cadia Mine(Ridgeway) Helicopter Landing Site | CADIA_MINE | heliport
11745,AU,"150.691285, -34.05324",Camden - Onslow Park HLS,heliport,CAMDEN,150.691285,-34.05324,"[-34.05324, 150.691285]",Camden - Onslow Park HLS | CAMDEN | heliport
11746,AU,"142.1490020751953, -12.145600318908691",Agnew Airport,small_airport,AGNEW,142.1490020751953,-12.145600318908691,"[-12.145600318908691, 142.1490020751953]",Agnew Airport | AGNEW | small_airport
11747,AU,"136.07899475097656, -19.290800094604492",Alroy Downs Airport,small_airport,ALROY_DOWNS,136.07899475097656,-19.290800094604492,"[-19.290800094604492, 136.07899475097656]",Alroy Downs Airport | ALROY_DOWNS | small_airport
11748,AU,"136.227005005, -13.19810009",Baniyala Airport,small_airport,BANIYALA,136.227005005,-13.19810009,"[-13.19810009, 136.227005005]",Baniyala Airport | BANIYALA | small_airport
11749,AU,"130.96200561523438, -15.548299789428711",Coolibah Airport,small_airport,COOLIBAH,130.96200561523438,-15.548299789428711,"[-15.548299789428711, 130.96200561523438]",Coolibah Airport | COOLIBAH | small_airport
11750,AU,"132.29600524902344, -31.894399642944336",Coorabie Airport,small_airport,COORABIE,132.29600524902344,-31.894399642944336,"[-31.894399642944336, 132.29600524902344]",Coorabie Airport | COORABIE | small_airport
11751,AU,"128.53399658203125, -15.501899719238281",Carlton Hill Airport,small_airport,CARLTON_HILL,128.53399658203125,-15.501899719238281,"[-15.501899719238281, 128.53399658203125]",Carlton Hill Airport | CARLTON_HILL | small_airport
11752,AU,"135.91600036621094, -17.947999954223633",Cresswell Downs Airport,small_airport,CRESSWELL_DOWNS,135.91600036621094,-17.947999954223633,"[-17.947999954223633, 135.91600036621094]",Cresswell Downs Airport | CRESSWELL_DOWNS | small_airport
11753,AU,"141.14500427246094, -23.761699676513672",Diamantina Lakes Airport,small_airport,DIAMANTINA_LAKES,141.14500427246094,-23.761699676513672,"[-23.761699676513672, 141.14500427246094]",Diamantina Lakes Airport | DIAMANTINA_LAKES | small_airport
11754,AU,"148.88099670410156, -20.059999465942383",Hayman Island Resort Seaplane Base,seaplane_base,HAYMAN_ISLAND,148.88099670410156,-20.059999465942383,"[-20.059999465942383, 148.88099670410156]",Hayman Island Resort Seaplane Base | HAYMAN_ISLAND | seaplane_base
11755,AU,"145.21499633789062, -15.685799598693848",Helenvale Airport,small_airport,HELENVALE,145.21499633789062,-15.685799598693848,"[-15.685799598693848, 145.21499633789062]",Helenvale Airport | HELENVALE | small_airport
11756,AU,"124.3550033569336, -17.39780044555664",Kimberley Downs Airport,small_airport,KIMBERLEY_DOWNS,124.3550033569336,-17.39780044555664,"[-17.39780044555664, 124.3550033569336]",Kimberley Downs Airport | KIMBERLEY_DOWNS | small_airport
11757,AU,"133.29200744628906, -25.84280014038086",Kulgera Airport,small_airport,KULGERA,133.29200744628906,-25.84280014038086,"[-25.84280014038086, 133.29200744628906]",Kulgera Airport | KULGERA | small_airport
11758,AU,"141.886002, -17.328899",Miranda Downs Airport,small_airport,MIRANDA_DOWNS,141.886002,-17.328899,"[-17.328899, 141.886002]",Miranda Downs Airport | MIRANDA_DOWNS | small_airport
11759,AU,"124.27200317382812, -18.12470054626465",Camballin Airport,small_airport,MYROODAH,124.27200317382812,-18.12470054626465,"[-18.12470054626465, 124.27200317382812]",Camballin Airport | MYROODAH | small_airport
11760,AU,"153.31500244141, -24.959400177002",Orchid Beach Airport,small_airport,ORCHID_BEACH,153.31500244141,-24.959400177002,"[-24.959400177002, 153.31500244141]",Orchid Beach Airport | ORCHID_BEACH | small_airport
11761,AU,"130.091003418, -14.144200325",Peppimenarti Airport,small_airport,PEPPIMENARTI,130.091003418,-14.144200325,"[-14.144200325, 130.091003418]",Peppimenarti Airport | PEPPIMENARTI | small_airport
11762,AU,"135.2010040283203, -18.95330047607422",Rockhampton Downs Airport,small_airport,ROCKHAMPTON_DOWNS,135.2010040283203,-18.95330047607422,"[-18.95330047607422, 135.2010040283203]",Rockhampton Downs Airport | ROCKHAMPTON_DOWNS | small_airport
11763,AU,"128.1739959716797, -19.166400909423828",Sturt Creek Airport,small_airport,STURT_CREEK,128.1739959716797,-19.166400909423828,"[-19.166400909423828, 128.1739959716797]",Sturt Creek Airport | STURT_CREEK | small_airport
11764,AU,"119.36199951171875, -21.510299682617188",Shaw River Airport,small_airport,SHAW_RIVER,119.36199951171875,-21.510299682617188,"[-21.510299682617188, 119.36199951171875]",Shaw River Airport | SHAW_RIVER | small_airport
11765,AU,"117.869003296, -22.746000289900003",Tom Price Airport,small_airport,TOM_PRICE,117.869003296,-22.746000289900003,"[-22.746000289900003, 117.869003296]",Tom Price Airport | TOM_PRICE | small_airport
11766,AU,"143.75, -17.363300323486328",Torwood Airport,small_airport,TORWOOD,143.75,-17.363300323486328,"[-17.363300323486328, 143.75]",Torwood Airport | TORWOOD | small_airport
11767,AU,"127.66999816894531, -17.78689956665039",Springvale Airport,small_airport,SPRINGVALE,127.66999816894531,-17.78689956665039,"[-17.78689956665039, 127.66999816894531]",Springvale Airport | SPRINGVALE | small_airport
12178,AU,"136.201666667, -13.780833333299999",Milyakburra Airport,small_airport,BICKERTON_ISLAND,136.201666667,-13.780833333299999,"[-13.780833333299999, 136.201666667]",Milyakburra Airport | BICKERTON_ISLAND | small_airport
12346,AU,"141.562777778, -23.3638888889",Brighton Downs Airport,small_airport,,141.562777778,-23.3638888889,"[-23.3638888889, 141.562777778]",Brighton Downs Airport |  | small_airport
14608,AU,"125.537777778, -18.917777777800005",Cherrabun Airport,small_airport,,125.537777778,-18.917777777800005,"[-18.917777777800005, 125.537777778]",Cherrabun Airport |  | small_airport
17610,AU,"135.50599670410156, -26.429000854492188",Dalhousie Airport,small_airport,,135.50599670410156,-26.429000854492188,"[-26.429000854492188, 135.50599670410156]",Dalhousie Airport |  | small_airport
22057,AU,"125.7873, -18.1321",Fossil Downs Airport,small_airport,FOSSIL_DOWNS_STATION,125.7873,-18.1321,"[-18.1321, 125.7873]",Fossil Downs Airport | FOSSIL_DOWNS_STATION | small_airport
24244,AU,"151.911416, -23.441765",Heron Island Helipad,heliport,HERON_ISLAND,151.911416,-23.441765,"[-23.441765, 151.911416]",Heron Island Helipad | HERON_ISLAND | heliport
27997,AU,"139.2785, -24.3388",Kamaran Downs Airport,small_airport,KAMARAN_DOWNS,139.2785,-24.3388,"[-24.3388, 139.2785]",Kamaran Downs Airport | KAMARAN_DOWNS | small_airport
32093,AU,"151.3234, -33.5871",Palm Beach Seaplane Base,seaplane_base,SYDNEY,151.3234,-33.5871,"[-33.5871, 151.3234]",Palm Beach Seaplane Base | SYDNEY | seaplane_base
32160,AU,"126.743, -17.6128",Lansdowne Airport,small_airport,LANSDOWNE_STATION,126.743,-17.6128,"[-17.6128, 126.743]",Lansdowne Airport | LANSDOWNE_STATION | small_airport
32819,AU,"127.619, -20.1089",Mulan Airport,small_airport,LAKE_GREGORY,127.619,-20.1089,"[-20.1089, 127.619]",Mulan Airport | LAKE_GREGORY | small_airport
32858,AU,"153.10499572753906, -27.70829963684082",Logan Reserve Airport,small_airport,,153.10499572753906,-27.70829963684082,"[-27.70829963684082, 153.10499572753906]",Logan Reserve Airport |  | small_airport
33294,AU,"128.594, -16.661",Lissadell Airport,small_airport,LISSADELL_STATION,128.594,-16.661,"[-16.661, 128.594]",Lissadell Airport | LISSADELL_STATION | small_airport
33803,AU,"146.396169662, -41.235188030699994",Latrobe Airport,closed,LATROBE,146.396169662,-41.235188030699994,"[-41.235188030699994, 146.396169662]",Latrobe Airport | LATROBE | closed
34665,AU,"134.0942, -14.0533",Mainoru Airstrip,small_airport,MAINORU,134.0942,-14.0533,"[-14.0533, 134.0942]",Mainoru Airstrip | MAINORU | small_airport
35233,AU,"133.700594, -14.818133",Moroak Airport,small_airport,MOROAK,133.700594,-14.818133,"[-14.818133, 133.700594]",Moroak Airport | MOROAK | small_airport
38224,AU,"129.2638, -16.0442",Newry Airport,small_airport,NEWRY,129.2638,-16.0442,"[-16.0442, 129.2638]",Newry Airport | NEWRY | small_airport
38519,AU,"143.23300170898438, -34.968299865722656",Natya Airport,small_airport,,143.23300170898438,-34.968299865722656,"[-34.968299865722656, 143.23300170898438]",Natya Airport |  | small_airport
39716,AU,"141.5361, -28.0598",Orientos Airport,small_airport,ORIENTOS,141.5361,-28.0598,"[-28.0598, 141.5361]",Orientos Airport | ORIENTOS | small_airport
39741,AU,"142.296143, -31.624885",Koralta Station Airpirt,small_airport,,142.296143,-31.624885,"[-31.624885, 142.296143]",Koralta Station Airpirt |  | small_airport
41131,AU,"137.7759, -35.7574",American River Airport,closed,AMERICAN_RIVER,137.7759,-35.7574,"[-35.7574, 137.7759]",American River Airport | AMERICAN_RIVER | closed
41627,AU,"142.641, -13.6434",Rokeby Airport,small_airport,ROKEBY,142.641,-13.6434,"[-13.6434, 142.641]",Rokeby Airport | ROKEBY | small_airport
41628,AU,"144.4587, -18.4253",Rosella Plains Airport,small_airport,ROSELLA_PLAINS,144.4587,-18.4253,"[-18.4253, 144.4587]",Rosella Plains Airport | ROSELLA_PLAINS | small_airport
41761,AU,"134.05, -14.9215",Roper Valley Airport,small_airport,ROPER_VALLEY,134.05,-14.9215,"[-14.9215, 134.05]",Roper Valley Airport | ROPER_VALLEY | small_airport
41802,AU,"151.262, -33.869",Rose Bay Seaplane Base,seaplane_base,SYDNEY,151.262,-33.869,"[-33.869, 151.262]",Rose Bay Seaplane Base | SYDNEY | seaplane_base
46484,AU,"117.7627, -22.2554",Solomon Airport,small_airport,KARIJINI_NATIONAL_PARK,117.7627,-22.2554,"[-22.2554, 117.7627]",Solomon Airport | KARIJINI_NATIONAL_PARK | small_airport
47397,AU,"148.8399, -20.2622",South Molle Island Helipad,heliport,SOUTH_MOLLE_ISLAND_RESORT,148.8399,-20.2622,"[-20.2622, 148.8399]",South Molle Island Helipad | SOUTH_MOLLE_ISLAND_RESORT | heliport
47578,AU,"139.0821, -24.0568",Sandringham Airport,small_airport,SANDRINGHAM_STATION,139.0821,-24.0568,"[-24.0568, 139.0821]",Sandringham Airport | SANDRINGHAM_STATION | small_airport
49480,AU,"144.4499969482422, -17.450000762939453",Crystal Brook Airport,small_airport,,144.4499969482422,-17.450000762939453,"[-17.450000762939453, 144.4499969482422]",Crystal Brook Airport |  | small_airport
54087,AU,"141.9254, -25.3563",Waverney Airport,small_airport,WAVERNEY,141.9254,-25.3563,"[-25.3563, 141.9254]",Waverney Airport | WAVERNEY | small_airport
54206,AU,"146.445331, -38.682382",Welshpool Airport,small_airport,WELSHPOOL,146.445331,-38.682382,"[-38.682382, 146.445331]",Welshpool Airport | WELSHPOOL | small_airport
55054,AU,"119.790754, -21.43613",Corunna Downs (WW II),closed,MARBLE_BAR,119.790754,-21.43613,"[-21.43613, 119.790754]",Corunna Downs (WW II) | MARBLE_BAR | closed
55073,AU,"130.88099670410156, -16.444700241088867",Yarralin Airport,small_airport,,130.88099670410156,-16.444700241088867,"[-16.444700241088867, 130.88099670410156]",Yarralin Airport |  | small_airport
55074,AU,"117.80899810791016, -34.94329833984375",Albany Airport,medium_airport,ALBANY,117.80899810791016,-34.94329833984375,"[-34.94329833984375, 117.80899810791016]",Albany Airport | ALBANY | medium_airport
55075,AU,"143.167007446, -17.616699218799997",Abingdon Downs Airport,small_airport,,143.167007446,-17.616699218799997,"[-17.616699218799997, 143.167007446]",Abingdon Downs Airport |  | small_airport
55076,AU,"120.38300323486328, -27.283300399780273",Albion Downs Airport,small_airport,,120.38300323486328,-27.283300399780273,"[-27.283300399780273, 120.38300323486328]",Albion Downs Airport |  | small_airport
55077,AU,"133.172332, -23.339897",Amburla Airport,small_airport,BURT_PLAIN,133.172332,-23.339897,"[-23.339897, 133.172332]",Amburla Airport | BURT_PLAIN | small_airport
55078,AU,"148.68299865722656, -25.200000762939453",Arcadia Airport,small_airport,,148.68299865722656,-25.200000762939453,"[-25.200000762939453, 148.68299865722656]",Arcadia Airport |  | small_airport
55079,AU,"141.89999389648438, -31.41670036315918",Acacia Downs Airport,small_airport,,141.89999389648438,-31.41670036315918,"[-31.41670036315918, 141.89999389648438]",Acacia Downs Airport |  | small_airport
55080,AU,"125.93299865722656, -31.799999237060547",Arubiddy Airport,small_airport,,125.93299865722656,-31.799999237060547,"[-31.799999237060547, 125.93299865722656]",Arubiddy Airport |  | small_airport
55081,AU,"138.490005493, -35.2900009155",Aldinga Airport,small_airport,ALDINGA,138.490005493,-35.2900009155,"[-35.2900009155, 138.490005493]",Aldinga Airport | ALDINGA | small_airport
55082,AU,"148.79600524902344, -35.997798919677734",Adaminaby Airport,small_airport,,148.79600524902344,-35.997798919677734,"[-35.997798919677734, 148.79600524902344]",Adaminaby Airport |  | small_airport
55083,AU,"146.99, -21.27333333",Yandan Mine Airport,small_airport,,146.99,-21.27333333,"[-21.27333333, 146.99]",Yandan Mine Airport |  | small_airport
55084,AU,"135.290794, -25.407772",Andado Airport,small_airport,GHAN,135.290794,-25.407772,"[-25.407772, 135.290794]",Andado Airport | GHAN | small_airport
55085,AU,"139.259906, -26.488959",Alton Downs Airport,small_airport,,139.259906,-26.488959,"[-26.488959, 139.259906]",Alton Downs Airport |  | small_airport
55086,AU,"148.8000030517578, -35.983299255371094",Adaminaby Airport,small_airport,,148.8000030517578,-35.983299255371094,"[-35.983299255371094, 148.8000030517578]",Adaminaby Airport |  | small_airport
55087,AU,"144.9813, -37.84526",Alfred Hospital Helipad,heliport,MELBOURNE,144.9813,-37.84526,"[-37.84526, 144.9813]",Alfred Hospital Helipad | MELBOURNE | heliport
55088,AU,"139.8780059814453, -18.514999389648438",Augustus Downs Airport,small_airport,,139.8780059814453,-18.514999389648438,"[-18.514999389648438, 139.8780059814453]",Augustus Downs Airport |  | small_airport
55089,AU,"117.03299713134766, -23.38330078125",Ashburton Downs Airport,small_airport,,117.03299713134766,-23.38330078125,"[-23.38330078125, 117.03299713134766]",Ashburton Downs Airport |  | small_airport
55091,AU,"134.7449951171875, -27.946699142456055",Arckaringa Airport,small_airport,,134.7449951171875,-27.946699142456055,"[-27.946699142456055, 134.7449951171875]",Arckaringa Airport |  | small_airport
55092,AU,"133.6269989013672, -27.33329963684082",Marla Airport,small_airport,,133.6269989013672,-27.33329963684082,"[-27.33329963684082, 133.6269989013672]",Marla Airport |  | small_airport
55093,AU,"134.4499969482422, -22.83329963684082",Alcoota Station Airport,small_airport,,134.4499969482422,-22.83329963684082,"[-22.83329963684082, 134.4499969482422]",Alcoota Station Airport |  | small_airport
55094,AU,"138.5330047607422, -18.700000762939453",Adels Grove Airport,small_airport,,138.5330047607422,-18.700000762939453,"[-18.700000762939453, 138.5330047607422]",Adels Grove Airport |  | small_airport
55095,AU,"144.2830047607422, -24.700000762939453",Albilbah Airport,small_airport,,144.2830047607422,-24.700000762939453,"[-24.700000762939453, 144.2830047607422]",Albilbah Airport |  | small_airport
55096,AU,"134.39999389648438, -24.266700744628906",Allambie Airport,small_airport,,134.39999389648438,-24.266700744628906,"[-24.266700744628906, 134.39999389648438]",Allambie Airport |  | small_airport
55097,AU,"142.60000610351562, -30.38330078125",Allandy Airport,small_airport,,142.60000610351562,-30.38330078125,"[-30.38330078125, 142.60000610351562]",Allandy Airport |  | small_airport
55098,AU,"136.7100067138672, -19.060199737548828",Alexandria Homestead Airport,small_airport,,136.7100067138672,-19.060199737548828,"[-19.060199737548828, 136.7100067138672]",Alexandria Homestead Airport |  | small_airport
55099,AU,"139.63299560546875, -22.483299255371094",Alderley Airport,small_airport,,139.63299560546875,-22.483299255371094,"[-22.483299255371094, 139.63299560546875]",Alderley Airport |  | small_airport
55100,AU,"152.712006, -27.6406",RAAF Base Amberley,medium_airport,,152.712006,-27.6406,"[-27.6406, 152.712006]",RAAF Base Amberley |  | medium_airport
55101,AU,"145.24200439453125, -22.966699600219727",Aramac Airport,small_airport,,145.24200439453125,-22.966699600219727,"[-22.966699600219727, 145.24200439453125]",Aramac Airport |  | small_airport
55102,AU,"135.23097, -21.654955",Ampilatwatja Airport,small_airport,AMPILATWATJA,135.23097,-21.654955,"[-21.654955, 135.23097]",Ampilatwatja Airport | AMPILATWATJA | small_airport
55103,AU,"137.136993, -30.438299",Andamooka Airport,small_airport,,137.136993,-30.438299,"[-30.438299, 137.136993]",Andamooka Airport |  | small_airport
55104,AU,"139.76699829101562, -17.966699600219727",Armraynald Airport,small_airport,,139.76699829101562,-17.966699600219727,"[-17.966699600219727, 139.76699829101562]",Armraynald Airport |  | small_airport
55105,AU,"135.24200439453125, -21.738300323486328",Ammaroo Airport,small_airport,,135.24200439453125,-21.738300323486328,"[-21.738300323486328, 135.24200439453125]",Ammaroo Airport |  | small_airport
55106,AU,"131.202732, -26.097363",Amata Airport,small_airport,,131.202732,-26.097363,"[-26.097363, 131.202732]",Amata Airport |  | small_airport
55107,AU,"140.98300170898438, -21.66670036315918",Answer Downs Airport,small_airport,,140.98300170898438,-21.66670036315918,"[-21.66670036315918, 140.98300170898438]",Answer Downs Airport |  | small_airport
55108,AU,"118.707222222, -23.1355555556",West Angelas Airport,small_airport,,118.707222222,-23.1355555556,"[-23.1355555556, 118.707222222]",West Angelas Airport |  | small_airport
55109,AU,"130.39999389648438, -26.100000381469727",Angatja Airport,small_airport,,130.39999389648438,-26.100000381469727,"[-26.100000381469727, 130.39999389648438]",Angatja Airport |  | small_airport
55110,AU,"136.1699981689453, -28.896699905395508",Anna Creek Airport,small_airport,,136.1699981689453,-28.896699905395508,"[-28.896699905395508, 136.1699981689453]",Anna Creek Airport |  | small_airport
55111,AU,"135.535068512, -18.018079031",Anthony Lagoon Airport,small_airport,,135.535068512,-18.018079031,"[-18.018079031, 135.535068512]",Anthony Lagoon Airport |  | small_airport
55112,AU,"133.125, -21.83169937133789",Anningie Airport,small_airport,,133.125,-21.83169937133789,"[-21.83169937133789, 133.125]",Anningie Airport |  | small_airport
55113,AU,"136.451139, -21.200017",Annitowa Airport,small_airport,,136.451139,-21.200017,"[-21.200017, 136.451139]",Annitowa Airport |  | small_airport
55114,AU,"139.18299865722656, -21.649999618530273",Ardmore Airport,small_airport,,139.18299865722656,-21.649999618530273,"[-21.649999618530273, 139.18299865722656]",Ardmore Airport |  | small_airport
55115,AU,"121.51699829101562, -19.266700744628906",Anna Plains Airport,small_airport,,121.51699829101562,-19.266700744628906,"[-19.266700744628906, 121.51699829101562]",Anna Plains Airport |  | small_airport
55116,AU,"146.584, -23.646099",Alpha Airport,medium_airport,ALPHA,146.584,-23.646099,"[-23.646099, 146.584]",Alpha Airport | ALPHA | medium_airport
55117,AU,"143.661174774, -38.774930231599996",Apollo Bay Airport,small_airport,,143.661174774,-38.774930231599996,"[-38.774930231599996, 143.661174774]",Apollo Bay Airport |  | small_airport
55119,AU,"142.98899841308594, -37.30939865112305",Ararat Airport,medium_airport,,142.98899841308594,-37.30939865112305,"[-37.30939865112305, 142.98899841308594]",Ararat Airport |  | medium_airport
55120,AU,"136.67799377441406, -21.676700592041016",Argadargada Airport,small_airport,,136.67799377441406,-21.676700592041016,"[-21.676700592041016, 136.67799377441406]",Argadargada Airport |  | small_airport
55121,AU,"128.451004, -16.6369",Argyle Airport,small_airport,,128.451004,-16.6369,"[-16.6369, 128.451004]",Argyle Airport |  | small_airport
55122,AU,"141.56700134277344, -21.66670036315918",Arizona 1 Airport,small_airport,,141.56700134277344,-21.66670036315918,"[-21.66670036315918, 141.56700134277344]",Arizona 1 Airport |  | small_airport
55123,AU,"139.3459930419922, -30.406700134277344",Arkaroola Airport,small_airport,,139.3459930419922,-30.406700134277344,"[-30.406700134277344, 139.3459930419922]",Arkaroola Airport |  | small_airport
55124,AU,"146.88299560546875, -34.36669921875",Ardlethan Airport,small_airport,,146.88299560546875,-34.36669921875,"[-34.36669921875, 146.88299560546875]",Ardlethan Airport |  | small_airport
55125,AU,"151.617004395, -30.528099060099997",Armidale Airport,medium_airport,ARMIDALE,151.617004395,-30.528099060099997,"[-30.528099060099997, 151.617004395]",Armidale Airport | ARMIDALE | medium_airport
55126,AU,"132.271228, -24.091565",Areyonga Airport,small_airport,,132.271228,-24.091565,"[-24.091565, 132.271228]",Areyonga Airport |  | small_airport
55127,AU,"135.6999969482422, -22.316699981689453",Arapunya Airport,small_airport,,135.6999969482422,-22.316699981689453,"[-22.316699981689453, 135.6999969482422]",Arapunya Airport |  | small_airport
55128,AU,"137.888291667, -34.4471888889",Ardrossan Airport,small_airport,,137.888291667,-34.4471888889,"[-34.4471888889, 137.888291667]",Ardrossan Airport |  | small_airport
55129,AU,"141.047771, -26.693023",Arrabury Airport,small_airport,,141.047771,-26.693023,"[-26.693023, 141.047771]",Arrabury Airport |  | small_airport
55130,AU,"151.0500030517578, -29.316699981689453",Ashford Airport,small_airport,,151.0500030517578,-29.316699981689453,"[-29.316699981689453, 151.0500030517578]",Ashford Airport |  | small_airport
55131,AU,"149.01499938964844, -34.88669967651367",Bakblok Airport,small_airport,,149.01499938964844,-34.88669967651367,"[-34.88669967651367, 149.01499938964844]",Bakblok Airport |  | small_airport
55132,AU,"136.388955, -23.255344",Atula Airport,small_airport,ANATYE,136.388955,-23.255344,"[-23.255344, 136.388955]",Atula Airport | ANATYE | small_airport
55133,AU,"145.51499939, -17.2616996765",Atherton Airport,small_airport,ATHERTON,145.51499939,-17.2616996765,"[-17.2616996765, 145.51499939]",Atherton Airport | ATHERTON | small_airport
55134,AU,"143.39999389648438, -37.18330001831055",Amphitheatre Airport,small_airport,,143.39999389648438,-37.18330001831055,"[-37.18330001831055, 143.39999389648438]",Amphitheatre Airport |  | small_airport
55135,AU,"119.25, -28.216699600219727",Atley Airport,small_airport,,119.25,-28.216699600219727,"[-28.216699600219727, 119.25]",Atley Airport |  | small_airport
55136,AU,"146.58700561523438, -25.7549991607666",Augathella Airport,small_airport,,146.58700561523438,-25.7549991607666,"[-25.7549991607666, 146.58700561523438]",Augathella Airport |  | small_airport
55137,AU,"115.157029, -34.328604",Tallinup-Augusta Airport,small_airport,AUGUSTA,115.157029,-34.328604,"[-34.328604, 115.157029]",Tallinup-Augusta Airport | AUGUSTA | small_airport
55138,AU,"141.72065, -13.354067",Aurukun Airport,small_airport,AURUKUN,141.72065,-13.354067,"[-13.354067, 141.72065]",Aurukun Airport | AURUKUN | small_airport
55139,AU,"137.75, -20.5",Austral Downs Airport,small_airport,,137.75,-20.5,"[-20.5, 137.75]",Austral Downs Airport |  | small_airport
55140,AU,"130, -15.699999809265137",Auvergne Airport,small_airport,,130.0,-15.699999809265137,"[-15.699999809265137, 130.0]",Auvergne Airport |  | small_airport
55141,AU,"137.51699829101562, -20.033300399780273",Avon Downs Airport,small_airport,,137.51699829101562,-20.033300399780273,"[-20.033300399780273, 137.51699829101562]",Avon Downs Airport |  | small_airport
55142,AU,"144.5500030517578, -36.56669998168945",Avonmore Airport,small_airport,,144.5500030517578,-36.56669998168945,"[-36.56669998168945, 144.5500030517578]",Avonmore Airport |  | small_airport
55143,AU,"151.8925, -24.20224",Agnes Water Airport,small_airport,AGNES_WATER,151.8925,-24.20224,"[-24.20224, 151.8925]",Agnes Water Airport | AGNES_WATER | small_airport
55144,AU,"130.975998, -25.1861",Ayers Rock Connellan Airport,medium_airport,AYERS_ROCK,130.975998,-25.1861,"[-25.1861, 130.975998]",Ayers Rock Connellan Airport | AYERS_ROCK | medium_airport
55145,AU,"147.32899475097656, -19.584400177001953",Ayr Airport,small_airport,,147.32899475097656,-19.584400177001953,"[-19.584400177001953, 147.32899475097656]",Ayr Airport |  | small_airport
55146,AU,"149.843166, -24.19357",Baralaba,small_airport,BARALABA,149.843166,-24.19357,"[-24.19357, 149.843166]",Baralaba | BARALABA | small_airport
55147,AU,"149.0919952392578, -30.954999923706055",Baradine Airport,small_airport,,149.0919952392578,-30.954999923706055,"[-30.954999923706055, 149.0919952392578]",Baradine Airport |  | small_airport
55148,AU,"153.007995605, -27.5702991486",Brisbane Archerfield Airport,small_airport,BRISBANE,153.007995605,-27.5702991486,"[-27.5702991486, 153.007995605]",Brisbane Archerfield Airport | BRISBANE | small_airport
55149,AU,"135.4669952392578, -16.13330078125",Bauhinia Downs Airport,small_airport,,135.4669952392578,-16.13330078125,"[-16.13330078125, 135.4669952392578]",Bauhinia Downs Airport |  | small_airport
55150,AU,"123.61799621582031, -32.349998474121094",Balladonia Airport,small_airport,,123.61799621582031,-32.349998474121094,"[-32.349998474121094, 123.61799621582031]",Balladonia Airport |  | small_airport
55151,AU,"142.459, -10.9508",Northern Peninsula Airport,small_airport,BAMAGA,142.459,-10.9508,"[-10.9508, 142.459]",Northern Peninsula Airport | BAMAGA | small_airport
55152,AU,"125.90899658203125, -16.737199783325195",Mount Barnet Airport,small_airport,,125.90899658203125,-16.737199783325195,"[-16.737199783325195, 125.90899658203125]",Mount Barnet Airport |  | small_airport
55153,AU,"149.85000610351562, -35.45000076293945",Braidwood Airport,small_airport,,149.85000610351562,-35.45000076293945,"[-35.45000076293945, 149.85000610351562]",Braidwood Airport |  | small_airport
55154,AU,"145.307006836, -23.5652999878",Barcaldine Airport,medium_airport,BARCALDINE,145.307006836,-23.5652999878,"[-23.5652999878, 145.307006836]",Barcaldine Airport | BARCALDINE | medium_airport
55155,AU,"133.90199279785156, -23.806699752807617",Alice Springs Airport,medium_airport,ALICE_SPRINGS,133.90199279785156,-23.806699752807617,"[-23.806699752807617, 133.90199279785156]",Alice Springs Airport | ALICE_SPRINGS | medium_airport
55156,AU,"142.1734, -10.149999618499999",Badu Island Airport,small_airport,,142.1734,-10.149999618499999,"[-10.149999618499999, 142.1734]",Badu Island Airport |  | small_airport
55157,AU,"138.474722222, -20.4958333333",Barkly Downs Airport,small_airport,,138.474722222,-20.4958333333,"[-20.4958333333, 138.474722222]",Barkly Downs Airport |  | small_airport
55158,AU,"150.60000610351562, -30.38330078125",Barraba Airport,small_airport,,150.60000610351562,-30.38330078125,"[-30.38330078125, 150.60000610351562]",Barraba Airport |  | small_airport
55159,AU,"120.16500091552734, -20.944599151611328",Bamboo Creek Airport,small_airport,BAMBOO_CREEK_GOLD_MINE,120.16500091552734,-20.944599151611328,"[-20.944599151611328, 120.16500091552734]",Bamboo Creek Airport | BAMBOO_CREEK_GOLD_MINE | small_airport
55160,AU,"117.672996521, -27.3285999298",Big Bell Airport,small_airport,BIG_BELL,117.672996521,-27.3285999298,"[-27.3285999298, 117.672996521]",Big Bell Airport | BIG_BELL | small_airport
55161,AU,"115.83300018310547, -27.41670036315918",Billabalong Airport,small_airport,,115.83300018310547,-27.41670036315918,"[-27.41670036315918, 115.83300018310547]",Billabalong Airport |  | small_airport
55162,AU,"153.11700439453125, -27.384199142456055",Brisbane International Airport,large_airport,BRISBANE,153.11700439453125,-27.384199142456055,"[-27.384199142456055, 153.11700439453125]",Brisbane International Airport | BRISBANE | large_airport
55163,AU,"135.47999572753906, -30.406700134277344",Bon Bon Airport,small_airport,,135.47999572753906,-30.406700134277344,"[-30.406700134277344, 135.47999572753906]",Bon Bon Airport |  | small_airport
55164,AU,"143.7270050048828, -36.13669967651367",Boort Airport,small_airport,,143.7270050048828,-36.13669967651367,"[-36.13669967651367, 143.7270050048828]",Boort Airport |  | small_airport
55165,AU,"117.86699676513672, -30.83329963684082",Bencubbin Airport,small_airport,,117.86699676513672,-30.83329963684082,"[-30.83329963684082, 117.86699676513672]",Bencubbin Airport |  | small_airport
55166,AU,"153.505004883, -28.1644001007",Gold Coast Airport,medium_airport,GOLD_COAST,153.505004883,-28.1644001007,"[-28.1644001007, 153.505004883]",Gold Coast Airport | GOLD_COAST | medium_airport
55167,AU,"146.696388889, -36.3933333333",Beechworth Airport,small_airport,,146.696388889,-36.3933333333,"[-36.3933333333, 146.696388889]",Beechworth Airport |  | small_airport
55168,AU,"145.429000854, -24.427799224900003",Blackall Airport,medium_airport,BLACKALL,145.429000854,-24.427799224900003,"[-24.427799224900003, 145.429000854]",Blackall Airport | BLACKALL | medium_airport
55169,AU,"149.41700744628906, -30.049999237060547",Boolcarrol Station Airport,small_airport,,149.41700744628906,-30.049999237060547,"[-30.049999237060547, 149.41700744628906]",Boolcarrol Station Airport |  | small_airport
55170,AU,"152.466545105, -27.3907447666",Coominya,small_airport,,152.466545105,-27.3907447666,"[-27.3907447666, 152.466545105]",Coominya |  | small_airport
55171,AU,"131.0330047607422, -13.066699981689453",Batchelor Airport,small_airport,,131.0330047607422,-13.066699981689453,"[-13.066699981689453, 131.0330047607422]",Batchelor Airport |  | small_airport
55172,AU,"145.755004883, -16.885799408",Cairns International Airport,medium_airport,CAIRNS,145.755004883,-16.885799408,"[-16.885799408, 145.755004883]",Cairns International Airport | CAIRNS | medium_airport
55173,AU,"146.261993408, -26.4132995605",Charleville Airport,medium_airport,CHARLEVILLE,146.261993408,-26.4132995605,"[-26.4132995605, 146.261993408]",Charleville Airport | CHARLEVILLE | medium_airport
55174,AU,"127.462997437, -17.286699295",Bedford Downs Airport,small_airport,,127.462997437,-17.286699295,"[-17.286699295, 127.462997437]",Bedford Downs Airport |  | small_airport
55175,AU,"144.330001831, -36.7393989563",Bendigo Airport,small_airport,,144.330001831,-36.7393989563,"[-36.7393989563, 144.330001831]",Bendigo Airport |  | small_airport
55176,AU,"147.41700744628906, -41.016700744628906",Bridport Airport,small_airport,,147.41700744628906,-41.016700744628906,"[-41.016700744628906, 147.41700744628906]",Bridport Airport |  | small_airport
55177,AU,"134.51699829101562, -30.283300399780273",Birthday Siding Airport,small_airport,,134.51699829101562,-30.283300399780273,"[-30.283300399780273, 134.51699829101562]",Birthday Siding Airport |  | small_airport
55178,AU,"129.437592, -18.384522",Birrindudu Airport,small_airport,,129.437592,-18.384522,"[-18.384522, 129.437592]",Birrindudu Airport |  | small_airport
55179,AU,"139.34800720214844, -25.897499084472656",Birdsville Airport,medium_airport,,139.34800720214844,-25.897499084472656,"[-25.897499084472656, 139.34800720214844]",Birdsville Airport |  | medium_airport
55180,AU,"114.96299743652344, -22.863300323486328",Barradale Airport,small_airport,,114.96299743652344,-22.863300323486328,"[-22.863300323486328, 114.96299743652344]",Barradale Airport |  | small_airport
55181,AU,"128.305, -17.545",Bellburn Airstrip,small_airport,PUMULULU_NATIONAL_PARK,128.305,-17.545,"[-17.545, 128.305]",Bellburn Airstrip | PUMULULU_NATIONAL_PARK | small_airport
55182,AU,"117.88300323486328, -30.483299255371094",Beacon Airport,small_airport,,117.88300323486328,-30.483299255371094,"[-30.483299255371094, 117.88300323486328]",Beacon Airport |  | small_airport
55183,AU,"139.55799865722656, -30.18670082092285",Beverley Airport,small_airport,,139.55799865722656,-30.18670082092285,"[-30.18670082092285, 139.55799865722656]",Beverley Airport |  | small_airport
55184,AU,"143.25, -37.45000076293945",Beaufort Airport,small_airport,,143.25,-37.45000076293945,"[-37.45000076293945, 143.25]",Beaufort Airport |  | small_airport
55185,AU,"147.0330047607422, -42.36669921875",Bothwell Airport,small_airport,,147.0330047607422,-42.36669921875,"[-42.36669921875, 147.0330047607422]",Bothwell Airport |  | small_airport
55186,AU,"140.7830047607422, -25.641700744628906",Betoota Airport,small_airport,,140.7830047607422,-25.641700744628906,"[-25.641700744628906, 140.7830047607422]",Betoota Airport |  | small_airport
55187,AU,"145.336031914, -38.0397768866",Berwick Airport,closed,BERWICK,145.336031914,-38.0397768866,"[-38.0397768866, 145.336031914]",Berwick Airport | BERWICK | closed
55188,AU,"142.41700744628906, -35.95000076293945",Beulah 1 Airport,small_airport,,142.41700744628906,-35.95000076293945,"[-35.95000076293945, 142.41700744628906]",Beulah 1 Airport |  | small_airport
55189,AU,"116.94999694824219, -32.13330078125",Beverley Airport,small_airport,,116.94999694824219,-32.13330078125,"[-32.13330078125, 116.94999694824219]",Beverley Airport |  | small_airport
55190,AU,"144.63299560546875, -31.91670036315918",Beechworth Airport,small_airport,,144.63299560546875,-31.91670036315918,"[-31.91670036315918, 144.63299560546875]",Beechworth Airport |  | small_airport
55191,AU,"144.886064529, -41.259033262799996",Balfour Airport,small_airport,,144.886064529,-41.259033262799996,"[-41.259033262799996, 144.886064529]",Balfour Airport |  | small_airport
55192,AU,"143.43, -37.495",Beaufort,small_airport,,143.43,-37.495,"[-37.495, 143.43]",Beaufort |  | small_airport
55193,AU,"122.6464, -17.0165",Beagle Bay Airport,small_airport,BEAGLE_BAY,122.6464,-17.0165,"[-17.0165, 122.6464]",Beagle Bay Airport | BEAGLE_BAY | small_airport
55194,AU,"117.275, -22.54",Boolgeeda,small_airport,,117.275,-22.54,"[-22.54, 117.275]",Boolgeeda |  | small_airport
55195,AU,"125.66699981689453, -31.066699981689453",Balgair Airport,small_airport,,125.66699981689453,-31.066699981689453,"[-31.066699981689453, 125.66699981689453]",Balgair Airport |  | small_airport
55196,AU,"127.973, -20.1483",Balgo Hill Airport,small_airport,BALGO,127.973,-20.1483,"[-20.1483, 127.973]",Balgo Hill Airport | BALGO | small_airport
55197,AU,"143.9499969482422, -36.61669921875",Bridgewater Airport,small_airport,,143.9499969482422,-36.61669921875,"[-36.61669921875, 143.9499969482422]",Bridgewater Airport |  | small_airport
55198,AU,"143.7729949951172, -25.3700008392334",Budgerygar Airport,small_airport,,143.7729949951172,-25.3700008392334,"[-25.3700008392334, 143.7729949951172]",Budgerygar Airport |  | small_airport
55199,AU,"150.19200134277344, -29.5049991607666",Biniguy Airport,small_airport,,150.19200134277344,-29.5049991607666,"[-29.5049991607666, 150.19200134277344]",Biniguy Airport |  | small_airport
55201,AU,"146.156005859375, -43.42070007324219",Bathurst Harbour Airport,small_airport,,146.156005859375,-43.42070007324219,"[-43.42070007324219, 146.156005859375]",Bathurst Harbour Airport |  | small_airport
55202,AU,"141.472000122, -32.0013999939",Broken Hill Airport,medium_airport,BROKEN_HILL,141.472000122,-32.0013999939,"[-32.0013999939, 141.472000122]",Broken Hill Airport | BROKEN_HILL | medium_airport
55203,AU,"139.7169952392578, -21.266700744628906",Bushy Park Airport,small_airport,,139.7169952392578,-21.266700744628906,"[-21.266700744628906, 139.7169952392578]",Bushy Park Airport |  | small_airport
55204,AU,"148.95199585, -20.3581008911",Hamilton Island Airport,medium_airport,HAMILTON_ISLAND,148.95199585,-20.3581008911,"[-20.3581008911, 148.95199585]",Hamilton Island Airport | HAMILTON_ISLAND | medium_airport
55205,AU,"150.5330047607422, -29.799999237060547",Bingara Airport,small_airport,,150.5330047607422,-29.799999237060547,"[-29.799999237060547, 150.5330047607422]",Bingara Airport |  | small_airport
55206,AU,"149.36, -34.303333333299996",Binda,small_airport,,149.36,-34.303333333299996,"[-34.303333333299996, 149.36]",Binda |  | small_airport
55207,AU,"139.4600067138672, -24.346099853515625",Bedourie Airport,medium_airport,,139.4600067138672,-24.346099853515625,"[-24.346099853515625, 139.4600067138672]",Bedourie Airport |  | medium_airport
55208,AU,"135.736915, -16.72373",Balbirini Airfield,small_airport,,135.736915,-16.72373,"[-16.72373, 135.736915]",Balbirini Airfield |  | small_airport
55209,AU,"150.100006, -34.166698",Bindook NDB,closed,,150.100006,-34.166698,"[-34.166698, 150.100006]",Bindook NDB |  | closed
55210,AU,"127.666999817, -19.566699981699998",Billiluna Airport,small_airport,,127.666999817,-19.566699981699998,"[-19.566699981699998, 127.666999817]",Billiluna Airport |  | small_airport
55211,AU,"152.0500030517578, -25.524999618530273",Biggenden Airport,small_airport,,152.0500030517578,-25.524999618530273,"[-25.524999618530273, 152.0500030517578]",Biggenden Airport |  | small_airport
55212,AU,"142.91700744628906, -35.999698638916016",Birchip Airport,small_airport,,142.91700744628906,-35.999698638916016,"[-35.999698638916016, 142.91700744628906]",Birchip Airport |  | small_airport
55213,AU,"116.77999877929688, -30.593299865722656",Ballidu Airport,small_airport,,116.77999877929688,-30.593299865722656,"[-30.593299865722656, 116.77999877929688]",Ballidu Airport |  | small_airport
55214,AU,"144.119444444, -14.7402777778",Bizant Airport,small_airport,LAKEFIELD_NATIONAL_PARK,144.119444444,-14.7402777778,"[-14.7402777778, 144.119444444]",Bizant Airport | LAKEFIELD_NATIONAL_PARK | small_airport
55216,AU,"121.5999984741211, -27.66670036315918",Banjawarn Airport,small_airport,,121.5999984741211,-27.66670036315918,"[-27.66670036315918, 121.5999984741211]",Banjawarn Airport |  | small_airport
55217,AU,"145.95199584960938, -30.039199829101562",Bourke Airport,medium_airport,,145.95199584960938,-30.039199829101562,"[-30.039199829101562, 145.95199584960938]",Bourke Airport |  | medium_airport
55218,AU,"135.81900024414062, -19.709199905395508",Barkly Wayside Inn Airport,small_airport,,135.81900024414062,-19.709199905395508,"[-19.709199905395508, 135.81900024414062]",Barkly Wayside Inn Airport |  | small_airport
55219,AU,"139.53399658203125, -17.748600006103516",Burketown Airport,small_airport,,139.53399658203125,-17.748600006103516,"[-17.748600006103516, 139.53399658203125]",Burketown Airport |  | small_airport
55220,AU,"146.0070037841797, -36.55189895629883",Benalla Airport,medium_airport,,146.0070037841797,-36.55189895629883,"[-36.55189895629883, 146.0070037841797]",Benalla Airport |  | medium_airport
55221,AU,"114.61699676513672, -26.816699981689453",Billabong Road House Airport,small_airport,,114.61699676513672,-26.816699981689453,"[-26.816699981689453, 114.61699676513672]",Billabong Road House Airport |  | small_airport
55222,AU,"139.33700561523438, -30.53499984741211",Balcanoona Airport,small_airport,,139.33700561523438,-30.53499984741211,"[-30.53499984741211, 139.33700561523438]",Balcanoona Airport |  | small_airport
55223,AU,"116.7959976196289, -31.825000762939453",Brooklands Airport,small_airport,,116.7959976196289,-31.825000762939453,"[-31.825000762939453, 116.7959976196289]",Brooklands Airport |  | small_airport
55224,AU,"140.85000610351562, -28.983299255371094",Bollards Lagoon Airport,small_airport,,140.85000610351562,-28.983299255371094,"[-28.983299255371094, 140.85000610351562]",Bollards Lagoon Airport |  | small_airport
55225,AU,"142.9499969482422, -27.033300399780273",Bellalie Airport,small_airport,,142.9499969482422,-27.033300399780273,"[-27.033300399780273, 142.9499969482422]",Bellalie Airport |  | small_airport
55226,AU,"147.48300170898438, -28.058300018310547",Bollon Airport,small_airport,,147.48300170898438,-28.058300018310547,"[-28.058300018310547, 147.48300170898438]",Bollon Airport |  | small_airport
55227,AU,"138.7259979248047, -31.118600845336914",Blinman Airport,small_airport,,138.7259979248047,-31.118600845336914,"[-31.118600845336914, 138.7259979248047]",Blinman Airport |  | small_airport
55228,AU,"115.401596069, -33.6884231567",Busselton Regional Airport,small_airport,,115.401596069,-33.6884231567,"[-33.6884231567, 115.401596069]",Busselton Regional Airport |  | small_airport
55229,AU,"143.79100036621094, -37.51169967651367",Ballarat Airport,small_airport,,143.79100036621094,-37.51169967651367,"[-37.51169967651367, 143.79100036621094]",Ballarat Airport |  | small_airport
55230,AU,"120.594435, -27.612302",Bellevue Airport,small_airport,,120.594435,-27.612302,"[-27.612302, 120.594435]",Bellevue Airport |  | small_airport
55231,AU,"139.488998413, -20.663900375399997",Mount Isa Airport,medium_airport,MOUNT_ISA,139.488998413,-20.663900375399997,"[-20.663900375399997, 139.488998413]",Mount Isa Airport | MOUNT_ISA | medium_airport
55232,AU,"153.091003, -26.6033",Sunshine Coast Airport,medium_airport,MAROOCHYDORE,153.091003,-26.6033,"[-26.6033, 153.091003]",Sunshine Coast Airport | MAROOCHYDORE | medium_airport
55233,AU,"145.330001831, -15.8736000061",Bloomfield River Airport,small_airport,,145.330001831,-15.8736000061,"[-15.8736000061, 145.330001831]",Bloomfield River Airport |  | small_airport
55234,AU,"150.076167, -36.4265",Bermagui - Dickinson Oval HLS,heliport,BERMAGUI,150.076167,-36.4265,"[-36.4265, 150.076167]",Bermagui - Dickinson Oval HLS | BERMAGUI | heliport
55235,AU,"149.58299255371094, -28.733299255371094",Boomi Airport,small_airport,,149.58299255371094,-28.733299255371094,"[-28.733299255371094, 149.58299255371094]",Boomi Airport |  | small_airport
55236,AU,"149.179992676, -21.171699523900003",Mackay Airport,medium_airport,MACKAY,149.179992676,-21.171699523900003,"[-21.171699523900003, 149.179992676]",Mackay Airport | MACKAY | medium_airport
55237,AU,"152.89999389648438, -27.968299865722656",Bromelton Airport,closed,,152.89999389648438,-27.968299865722656,"[-27.968299865722656, 152.89999389648438]",Bromelton Airport |  | closed
55238,AU,"144.63299560546875, -36.25",Bamawm Airport,small_airport,,144.63299560546875,-36.25,"[-36.25, 144.63299560546875]",Bamawm Airport |  | small_airport
55239,AU,"149.18200683594, -36.904998779297",Bombala Airport,small_airport,,149.18200683594,-36.904998779297,"[-36.904998779297, 149.18200683594]",Bombala Airport |  | small_airport
55240,AU,"140.45799255371094, -34.25669860839844",Barmera Airport,small_airport,,140.45799255371094,-34.25669860839844,"[-34.25669860839844, 140.45799255371094]",Barmera Airport |  | small_airport
55241,AU,"132.88299560546875, -14.520000457763672",Bamyili Airport,small_airport,,132.88299560546875,-14.520000457763672,"[-14.520000457763672, 132.88299560546875]",Bamyili Airport |  | small_airport
55242,AU,"153.56199646, -28.8339004517",Ballina Byron Gateway Airport,medium_airport,BALLINA,153.56199646,-28.8339004517,"[-28.8339004517, 153.56199646]",Ballina Byron Gateway Airport | BALLINA | medium_airport
55243,AU,"145.08299255371094, -21.799999237060547",Bannockburn Airport,small_airport,,145.08299255371094,-21.799999237060547,"[-21.799999237060547, 145.08299255371094]",Bannockburn Airport |  | small_airport
55244,AU,"136.89999389648438, -17.93670082092285",Benmara Airport,small_airport,,136.89999389648438,-17.93670082092285,"[-17.93670082092285, 136.89999389648438]",Benmara Airport |  | small_airport
55245,AU,"147.5679931640625, -37.88750076293945",Bairnsdale Airport,medium_airport,,147.5679931640625,-37.88750076293945,"[-37.88750076293945, 147.5679931640625]",Bairnsdale Airport |  | medium_airport
55246,AU,"134.46200561523438, -18.8700008392334",Brunchilly Airport,small_airport,,134.46200561523438,-18.8700008392334,"[-18.8700008392334, 134.46200561523438]",Brunchilly Airport |  | small_airport
55247,AU,"152.6820068359375, -28.016700744628906",Boonah Airport,small_airport,,152.6820068359375,-28.016700744628906,"[-28.016700744628906, 152.6820068359375]",Boonah Airport |  | small_airport
55248,AU,"138.36000061035156, -32.904998779296875",Booleroo Centre Airport,small_airport,,138.36000061035156,-32.904998779296875,"[-32.904998779296875, 138.36000061035156]",Booleroo Centre Airport |  | small_airport
55249,AU,"143.38299560546875, -26.299999237060547",Bodalla Airport,small_airport,,143.38299560546875,-26.299999237060547,"[-26.299999237060547, 143.38299560546875]",Bodalla Airport |  | small_airport
55250,AU,"150.0500030517578, -30.716699600219727",Boggabri Airport,small_airport,,150.0500030517578,-30.716699600219727,"[-30.716699600219727, 150.0500030517578]",Boggabri Airport |  | small_airport
55251,AU,"142.218002319, -9.23278045654",Boigu Airport,small_airport,,142.218002319,-9.23278045654,"[-9.23278045654, 142.218002319]",Boigu Airport |  | small_airport
55252,AU,"151.73500061035156, -27.411399841308594",Oakey Airport,medium_airport,,151.73500061035156,-27.411399841308594,"[-27.411399841308594, 151.73500061035156]",Oakey Airport |  | medium_airport
55254,AU,"116.18800354003906, -31.340299606323242",Catholic Agricultural College Bindoon Airstrip,small_airport,,116.18800354003906,-31.340299606323242,"[-31.340299606323242, 116.18800354003906]",Catholic Agricultural College Bindoon Airstrip |  | small_airport
55255,AU,"116.46700286865234, -33.900001525878906",Boyup Brook Airport,small_airport,,116.46700286865234,-33.900001525878906,"[-33.900001525878906, 116.46700286865234]",Boyup Brook Airport |  | small_airport
55256,AU,"140.712005615, -36.2649993896",Bordertown Airport,small_airport,BORDERTOWN,140.712005615,-36.2649993896,"[-36.2649993896, 140.712005615]",Bordertown Airport | BORDERTOWN | small_airport
55257,AU,"146.91700744628906, -27.25",Boatman Airport,small_airport,,146.91700744628906,-27.25,"[-27.25, 146.91700744628906]",Boatman Airport |  | small_airport
55258,AU,"139.89999389648438, -22.913299560546875",Boulia Airport,medium_airport,,139.89999389648438,-22.913299560546875,"[-22.913299560546875, 139.89999389648438]",Boulia Airport |  | medium_airport
55259,AU,"129.01199340820312, -31.639400482177734",Border Village Airport,small_airport,BORDER_VILLAGE,129.01199340820312,-31.639400482177734,"[-31.639400482177734, 129.01199340820312]",Border Village Airport | BORDER_VILLAGE | small_airport
55260,AU,"152.8483, -30.6477",Bowraville Oval Helicopter Landing Site,heliport,BOWRAVILLE,152.8483,-30.6477,"[-30.6477, 152.8483]",Bowraville Oval Helicopter Landing Site | BOWRAVILLE | heliport
55261,AU,"119.9000015258789, -27.75",Booylgoo Springs Airport,small_airport,,119.9000015258789,-27.75,"[-27.75, 119.9000015258789]",Booylgoo Springs Airport |  | small_airport
55262,AU,"149.27000427246094, -20.803300857543945",Brampton Island Airport,small_airport,,149.27000427246094,-20.803300857543945,"[-20.803300857543945, 149.27000427246094]",Brampton Island Airport |  | small_airport
55263,AU,"148.552001953, -20.4950008392",Proserpine Whitsunday Coast Airport,medium_airport,PROSERPINE,148.552001953,-20.4950008392,"[-20.4950008392, 148.552001953]",Proserpine Whitsunday Coast Airport | PROSERPINE | medium_airport
55265,AU,"147.699143887, -36.9668665594",Benambra Airport,small_airport,,147.699143887,-36.9668665594,"[-36.9668665594, 147.699143887]",Benambra Airport |  | small_airport
55266,AU,"133.871959, -21.542202",Barrow Creek Airport,small_airport,,133.871959,-21.542202,"[-21.542202, 133.871959]",Barrow Creek Airport |  | small_airport
55267,AU,"148.97500610351562, -30.158300399780273",Burren Junction Airport,small_airport,,148.97500610351562,-30.158300399780273,"[-30.158300399780273, 148.97500610351562]",Burren Junction Airport |  | small_airport
55268,AU,"150.475006104, -23.3819007874",Rockhampton Airport,medium_airport,ROCKHAMPTON,150.475006104,-23.3819007874,"[-23.3819007874, 150.475006104]",Rockhampton Airport | ROCKHAMPTON | medium_airport
55269,AU,"136.302001953125, -16.075300216674805",Borroloola Airport,small_airport,,136.302001953125,-16.075300216674805,"[-16.075300216674805, 136.302001953125]",Borroloola Airport |  | small_airport
55270,AU,"122.23200225830078, -17.944700241088867",Broome International Airport,medium_airport,BROOME,122.23200225830078,-17.944700241088867,"[-17.944700241088867, 122.23200225830078]",Broome International Airport | BROOME | medium_airport
55271,AU,"143.5780029296875, -34.623600006103516",Balranald Airport,medium_airport,,143.5780029296875,-34.623600006103516,"[-34.623600006103516, 143.5780029296875]",Balranald Airport |  | medium_airport
55272,AU,"118.11699676513672, -31.88330078125",Bruce Rock Airport,small_airport,,118.11699676513672,-31.88330078125,"[-31.88330078125, 118.11699676513672]",Bruce Rock Airport |  | small_airport
55273,AU,"144.4275, -38.258056",Barwon Heads Airport,small_airport,,144.4275,-38.258056,"[-38.258056, 144.4275]",Barwon Heads Airport |  | small_airport
55274,AU,"135.93800354, -18.639999389599996",Brunette Downs Airport,small_airport,,135.93800354,-18.639999389599996,"[-18.639999389599996, 135.93800354]",Brunette Downs Airport |  | small_airport
55275,AU,"146.81700134277344, -29.973899841308594",Brewarrina Airport,medium_airport,,146.81700134277344,-29.973899841308594,"[-29.973899841308594, 146.81700134277344]",Brewarrina Airport |  | medium_airport
55276,AU,"119.16600036621, -22.673900604248",Barimunya Airport,small_airport,,119.16600036621,-22.673900604248,"[-22.673900604248, 119.16600036621]",Barimunya Airport |  | small_airport
55277,AU,"142.08700561523438, -12.623900413513184",RAAF Scherger,small_airport,WEIPA,142.08700561523438,-12.623900413513184,"[-12.623900413513184, 142.08700561523438]",RAAF Scherger | WEIPA | small_airport
55278,AU,"133.84300231933594, -23.514999389648438",Bond Springs Airport,small_airport,,133.84300231933594,-23.514999389648438,"[-23.514999389648438, 133.84300231933594]",Bond Springs Airport |  | small_airport
55279,AU,"128.28799438476562, -25.9867000579834",Blackstone Airport,small_airport,,128.28799438476562,-25.9867000579834,"[-25.9867000579834, 128.28799438476562]",Blackstone Airport |  | small_airport
55280,AU,"144.421666667, -37.7333333333",Bacchus Marsh Airport,small_airport,,144.421666667,-37.7333333333,"[-37.7333333333, 144.421666667]",Bacchus Marsh Airport |  | small_airport
55281,AU,"143.5330047607422, -23.350000381469727",Brighton Downs Airport,small_airport,,143.5330047607422,-23.350000381469727,"[-23.350000381469727, 143.5330047607422]",Brighton Downs Airport |  | small_airport
55282,AU,"149.651992798, -33.4094009399",Bathurst Airport,medium_airport,BATHURST,149.651992798,-33.4094009399,"[-33.4094009399, 149.651992798]",Bathurst Airport | BATHURST | medium_airport
55283,AU,"130.6199951171875, -11.769200325012207",Bathurst Island Airport,medium_airport,,130.6199951171875,-11.769200325012207,"[-11.769200325012207, 130.6199951171875]",Bathurst Island Airport |  | medium_airport
55284,AU,"139.56578063964844, -17.086702346801758",Bentinck Island Airport,small_airport,,139.56578063964844,-17.086702346801758,"[-17.086702346801758, 139.56578063964844]",Bentinck Island Airport |  | small_airport
55285,AU,"146.76499938964844, -19.252500534057617",Townsville Airport,medium_airport,TOWNSVILLE,146.76499938964844,-19.252500534057617,"[-19.252500534057617, 146.76499938964844]",Townsville Airport | TOWNSVILLE | medium_airport
55286,AU,"132.66000366210938, -30.524999618530273",Barton Siding Airport,small_airport,,132.66000366210938,-30.524999618530273,"[-30.524999618530273, 132.66000366210938]",Barton Siding Airport |  | small_airport
55287,AU,"148.8070068359375, -23.603099822998047",Blackwater Airport,medium_airport,,148.8070068359375,-23.603099822998047,"[-23.603099822998047, 148.8070068359375]",Blackwater Airport |  | medium_airport
55288,AU,"145.85000610351562, -19.433300018310547",Battery Downs Airport,small_airport,,145.85000610351562,-19.433300018310547,"[-19.433300018310547, 145.85000610351562]",Battery Downs Airport |  | small_airport
55289,AU,"147.63299560546875, -31.358299255371094",Buttabone Airport,small_airport,,147.63299560546875,-31.358299255371094,"[-31.358299255371094, 147.63299560546875]",Buttabone Airport |  | small_airport
55290,AU,"142.675003052, -12.6591997147",Batavia Downs Airport,small_airport,,142.675003052,-12.6591997147,"[-12.6591997147, 142.675003052]",Batavia Downs Airport |  | small_airport
55291,AU,"148.5330047607422, -21.966699600219727",Bundarra Airport,small_airport,,148.5330047607422,-21.966699600219727,"[-21.966699600219727, 148.5330047607422]",Bundarra Airport |  | small_airport
55292,AU,"115.10067, -33.807251",Butch Airport,small_airport,COWARAMUP,115.10067,-33.807251,"[-33.807251, 115.10067]",Butch Airport | COWARAMUP | small_airport
55293,AU,"152.319000244, -24.903900146499996",Bundaberg Airport,medium_airport,BUNDABERG,152.319000244,-24.903900146499996,"[-24.903900146499996, 152.319000244]",Bundaberg Airport | BUNDABERG | medium_airport
55294,AU,"119.73300170898438, -28.5",Bulga Downs Station Airport,small_airport,,119.73300170898438,-28.5,"[-28.5, 119.73300170898438]",Bulga Downs Station Airport |  | small_airport
55295,AU,"145.880667, -41.047167",Burnie Helicopter Landing Site,heliport,BURNIE,145.880667,-41.047167,"[-41.047167, 145.880667]",Burnie Helicopter Landing Site | BURNIE | heliport
55296,AU,"134.9029998779297, -30.18670082092285",Bulgunnia Airport,small_airport,,134.9029998779297,-30.18670082092285,"[-30.18670082092285, 134.9029998779297]",Bulgunnia Airport |  | small_airport
55297,AU,"115.677001953125, -33.378299713134766",Bunbury Airport,small_airport,,115.677001953125,-33.378299713134766,"[-33.378299713134766, 115.677001953125]",Bunbury Airport |  | small_airport
55298,AU,"119.56700134277344, -24.016700744628906",Bulloo Downs Station Airport,small_airport,,119.56700134277344,-24.016700744628906,"[-24.016700744628906, 119.56700134277344]",Bulloo Downs Station Airport |  | small_airport
55299,AU,"145.75, -38.016700744628906",Bunyip Airport,small_airport,,145.75,-38.016700744628906,"[-38.016700744628906, 145.75]",Bunyip Airport |  | small_airport
55300,AU,"128.3070068359375, -17.545299530029297",Bungle Bungle Airport,small_airport,BUNGLE_BUNGLE,128.3070068359375,-17.545299530029297,"[-17.545299530029297, 128.3070068359375]",Bungle Bungle Airport | BUNGLE_BUNGLE | small_airport
55301,AU,"143.8000030517578, -17.649999618530273",Bulleringa Airport,small_airport,,143.8000030517578,-17.649999618530273,"[-17.649999618530273, 143.8000030517578]",Bulleringa Airport |  | small_airport
55302,AU,"149.131979942, -36.1342008376",Bunyan Airfield,small_airport,,149.131979942,-36.1342008376,"[-36.1342008376, 149.131979942]",Bunyan Airfield |  | small_airport
55303,AU,"138.33399963378906, -34.08430099487305",Balaklava Airport,small_airport,,138.33399963378906,-34.08430099487305,"[-34.08430099487305, 138.33399963378906]",Balaklava Airport |  | small_airport
55304,AU,"150.18299865722656, -31.58329963684082",Blackville Airport,small_airport,,150.18299865722656,-31.58329963684082,"[-31.58329963684082, 150.18299865722656]",Blackville Airport |  | small_airport
55305,AU,"129.76699829101562, -15.466699600219727",Bullo River Valley Airport,small_airport,,129.76699829101562,-15.466699600219727,"[-15.466699600219727, 129.76699829101562]",Bullo River Valley Airport |  | small_airport
55306,AU,"121.03600311279297, -27.3656005859375",Bronzewing Airport,small_airport,,121.03600311279297,-27.3656005859375,"[-27.3656005859375, 121.03600311279297]",Bronzewing Airport |  | small_airport
55307,AU,"147.08299255371094, -20.600000381469727",Burdekin Falls Dam Airport,small_airport,,147.08299255371094,-20.600000381469727,"[-20.600000381469727, 147.08299255371094]",Burdekin Falls Dam Airport |  | small_airport
55308,AU,"143.479003906, -16.8808002472",Bulimba Airport,small_airport,,143.479003906,-16.8808002472,"[-16.8808002472, 143.479003906]",Bulimba Airport |  | small_airport
55309,AU,"148.21499633789062, -20.018299102783203",Bowen Airport,small_airport,,148.21499633789062,-20.018299102783203,"[-20.018299102783203, 148.21499633789062]",Bowen Airport |  | small_airport
55310,AU,"144.99785, -22.4641",Bowen Downs Airport,small_airport,UPPER_CORNISH_CREEK,144.99785,-22.4641,"[-22.4641, 144.99785]",Bowen Downs Airport | UPPER_CORNISH_CREEK | small_airport
55311,AU,"141.925003052, -12.6786003113",Weipa Airport,medium_airport,WEIPA,141.925003052,-12.6786003113,"[-12.6786003113, 141.925003052]",Weipa Airport | WEIPA | medium_airport
55312,AU,"144.169006348, -17.388299942",Bolwarra Airport,small_airport,,144.169006348,-17.388299942,"[-17.388299942, 144.169006348]",Bolwarra Airport |  | small_airport
55313,AU,"123.5469970703125, -14.111700057983398",Browse Is Airport,small_airport,,123.5469970703125,-14.111700057983398,"[-14.111700057983398, 123.5469970703125]",Browse Is Airport |  | small_airport
55314,AU,"138.27499389648438, -18.08329963684082",Bowthorn Airport,small_airport,,138.27499389648438,-18.08329963684082,"[-18.08329963684082, 138.27499389648438]",Bowthorn Airport |  | small_airport
55315,AU,"151.793335, -27.558332",Toowoomba Wellcamp Airport,medium_airport,TOOWOOMBA,151.793335,-27.558332,"[-27.558332, 151.793335]",Toowoomba Wellcamp Airport | TOOWOOMBA | medium_airport
55316,AU,"115.40599822998047, -20.86440086364746",Barrow Island Airport,small_airport,,115.40599822998047,-20.86440086364746,"[-20.86440086364746, 115.40599822998047]",Barrow Island Airport |  | small_airport
55317,AU,"141.70199584960938, -37.8672981262207",Branxholme Airport,small_airport,,141.70199584960938,-37.8672981262207,"[-37.8672981262207, 141.70199584960938]",Branxholme Airport |  | small_airport
55318,AU,"118.73300170898438, -25.533300399780273",Bryah Airport,small_airport,,118.73300170898438,-25.533300399780273,"[-25.533300399780273, 118.73300170898438]",Bryah Airport |  | small_airport
55319,AU,"119.88300323486328, -22.266700744628906",Bonney Downs Station Airport,small_airport,,119.88300323486328,-22.266700744628906,"[-22.266700744628906, 119.88300323486328]",Bonney Downs Station Airport |  | small_airport
55320,AU,"147.3800048828125, -43.23419952392578",Bruny Island Airport,small_airport,,147.3800048828125,-43.23419952392578,"[-43.23419952392578, 147.3800048828125]",Bruny Island Airport |  | small_airport
55321,AU,"152.61611, -29.21829",Baryulgil Airstrip,small_airport,BARYULGIL,152.61611,-29.21829,"[-29.21829, 152.61611]",Baryulgil Airstrip | BARYULGIL | small_airport
55322,AU,"146.39999389648438, -30.66670036315918",Byrock Airport,small_airport,,146.39999389648438,-30.66670036315918,"[-30.66670036315918, 146.39999389648438]",Byrock Airport |  | small_airport
55323,AU,"125.43299865722656, -16.733299255371094",Beverley Springs Airport,small_airport,,125.43299865722656,-16.733299255371094,"[-16.733299255371094, 125.43299865722656]",Beverley Springs Airport |  | small_airport
55324,AU,"145.58299255371094, -25.450000762939453",Bayswater Airport,small_airport,,145.58299255371094,-25.450000762939453,"[-25.450000762939453, 145.58299255371094]",Bayswater Airport |  | small_airport
55325,AU,"150.51699829101562, -31.316699981689453",Breeza Airport,small_airport,,150.51699829101562,-31.316699981689453,"[-31.316699981689453, 150.51699829101562]",Breeza Airport |  | small_airport
55326,AU,"151.212006, -33.403301",Calga NDB,closed,,151.212006,-33.403301,"[-33.403301, 151.212006]",Calga NDB |  | closed
55327,AU,"152.98300170898438, -27.08329963684082",Caboolture Airport,small_airport,,152.98300170898438,-27.08329963684082,"[-27.08329963684082, 152.98300170898438]",Caboolture Airport |  | small_airport
55328,AU,"131.548995972, -17.607000351",Cattle Creek Airport,small_airport,,131.548995972,-17.607000351,"[-17.607000351, 131.548995972]",Cattle Creek Airport |  | small_airport
55329,AU,"147.53054809570312, -41.96722412109375",Campbell Town Airport,small_airport,,147.53054809570312,-41.96722412109375,"[-41.96722412109375, 147.53054809570312]",Campbell Town Airport |  | small_airport
55330,AU,"125.49299621582031, -32.26499938964844",Caiguna Airport,small_airport,,125.49299621582031,-32.26499938964844,"[-32.26499938964844, 125.49299621582031]",Caiguna Airport |  | small_airport
55331,AU,"149.61000061035156, -31.773300170898438",Coolah Airport,small_airport,,149.61000061035156,-31.773300170898438,"[-31.773300170898438, 149.61000061035156]",Coolah Airport |  | small_airport
55332,AU,"120.58300018310547, -30.11669921875",Callion Airport,small_airport,,120.58300018310547,-30.11669921875,"[-30.11669921875, 120.58300018310547]",Callion Airport |  | small_airport
55333,AU,"125.9000015258789, -18.700000762939453",Cadjebut Airport,small_airport,,125.9000015258789,-18.700000762939453,"[-18.700000762939453, 125.9000015258789]",Cadjebut Airport |  | small_airport
55334,AU,"144.16700744628906, -37.13330078125",Castlemaine Airport,small_airport,,144.16700744628906,-37.13330078125,"[-37.13330078125, 144.16700744628906]",Castlemaine Airport |  | small_airport
55335,AU,"140.89999389648438, -21.875",Cannington Station Airport,small_airport,,140.89999389648438,-21.875,"[-21.875, 140.89999389648438]",Cannington Station Airport |  | small_airport
55336,AU,"132.94495, -12.3549",Cannon Hill Community Airport,small_airport,CANNON_HILL,132.94495,-12.3549,"[-12.3549, 132.94495]",Cannon Hill Community Airport | CANNON_HILL | small_airport
55337,AU,"113.67174, -24.880211",Carnarvon Airport,medium_airport,CARNARVON,113.67174,-24.880211,"[-24.880211, 113.67174]",Carnarvon Airport | CARNARVON | medium_airport
55338,AU,"153.06700134277344, -28.88279914855957",Casino Airport,small_airport,,153.06700134277344,-28.88279914855957,"[-28.88279914855957, 153.06700134277344]",Casino Airport |  | small_airport
55339,AU,"145.79400634765625, -31.538299560546875",Cobar Airport,medium_airport,,145.79400634765625,-31.538299560546875,"[-31.538299560546875, 145.79400634765625]",Cobar Airport |  | medium_airport
55340,AU,"149.26699829101562, -31.332500457763672",Coonabarabran Airport,medium_airport,,149.26699829101562,-31.332500457763672,"[-31.332500457763672, 149.26699829101562]",Coonabarabran Airport |  | medium_airport
55341,AU,"140.927001953, -19.479400634799998",Canobie Airport,small_airport,CANOBIE,140.927001953,-19.479400634799998,"[-19.479400634799998, 140.927001953]",Canobie Airport | CANOBIE | small_airport
55342,AU,"147.47500610351562, -42.826698303222656",Hobart Cambridge Airport,small_airport,,147.47500610351562,-42.826698303222656,"[-42.826698303222656, 147.47500610351562]",Hobart Cambridge Airport |  | small_airport
55343,AU,"148.01699829101562, -40.391700744628906",Cape Barren Island Airport,small_airport,,148.01699829101562,-40.391700744628906,"[-40.391700744628906, 148.01699829101562]",Cape Barren Island Airport |  | small_airport
55344,AU,"136.59800720214844, -35.75669860839844",Cape Borda Airport,small_airport,,136.59800720214844,-35.75669860839844,"[-35.75669860839844, 136.59800720214844]",Cape Borda Airport |  | small_airport
55345,AU,"134.7209930419922, -29.040000915527344",Coober Pedy Airport,medium_airport,,134.7209930419922,-29.040000915527344,"[-29.040000915527344, 134.7209930419922]",Coober Pedy Airport |  | medium_airport
55346,AU,"148.58200073242188, -29.521699905395508",Collarenebri Airport,small_airport,,148.58200073242188,-29.521699905395508,"[-29.521699905395508, 148.58200073242188]",Collarenebri Airport |  | small_airport
55347,AU,"145.4247283935547, -16.219341278076172",Daintree Airport,small_airport,,145.4247283935547,-16.219341278076172,"[-16.219341278076172, 145.4247283935547]",Daintree Airport |  | small_airport
55348,AU,"150.61700439453125, -26.774999618530273",Chinchilla Airport,medium_airport,,150.61700439453125,-26.774999618530273,"[-26.774999618530273, 150.61700439453125]",Chinchilla Airport |  | medium_airport
55349,AU,"135.730097, -16.687676",Cape Crawford Airport,small_airport,MCARTHUR,135.730097,-16.687676,"[-16.687676, 135.730097]",Cape Crawford Airport | MCARTHUR | small_airport
55350,AU,"135.5850067138672, -20.650800704956055",Canteen Creek Airport,small_airport,,135.5850067138672,-20.650800704956055,"[-20.650800704956055, 135.5850067138672]",Canteen Creek Airport |  | small_airport
55351,AU,"143.07000732421875, -10.050000190734863",Coconut Island Airport,small_airport,,143.07000732421875,-10.050000190734863,"[-10.050000190734863, 143.07000732421875]",Coconut Island Airport |  | small_airport
55352,AU,"140.503997803, -20.668600082399998",Cloncurry Airport,medium_airport,CLONCURRY,140.503997803,-20.668600082399998,"[-20.668600082399998, 140.503997803]",Cloncurry Airport | CLONCURRY | medium_airport
55353,AU,"135.88299560546875, -31.066699981689453",Coondambo Airport,small_airport,,135.88299560546875,-31.066699981689453,"[-31.066699981689453, 135.88299560546875]",Coondambo Airport |  | small_airport
55354,AU,"143.056666, -38.326666",Cobden Airport,small_airport,,143.056666,-38.326666,"[-38.326666, 143.056666]",Cobden Airport |  | small_airport
55355,AU,"134.05299377441406, -27.908300399780273",Cadney Homestead Airport,small_airport,,134.05299377441406,-27.908300399780273,"[-27.908300399780273, 134.05299377441406]",Cadney Homestead Airport |  | small_airport
55356,AU,"145.93834877, -41.581231359",Cradle Mountain Airport,small_airport,MIDDLESEX,145.93834877,-41.581231359,"[-41.581231359, 145.93834877]",Cradle Mountain Airport | MIDDLESEX | small_airport
55357,AU,"147.20899963378906, -33.06439971923828",Condobolin Airport,small_airport,,147.20899963378906,-33.06439971923828,"[-33.06439971923828, 147.20899963378906]",Condobolin Airport |  | small_airport
55358,AU,"153.10000610351562, -26.799999237060547",Caloundra Airport,small_airport,,153.10000610351562,-26.799999237060547,"[-26.799999237060547, 153.10000610351562]",Caloundra Airport |  | small_airport
55359,AU,"152.335395813, -25.2530800689",Childers Airport,small_airport,,152.335395813,-25.2530800689,"[-25.2530800689, 152.335395813]",Childers Airport |  | small_airport
55360,AU,"138.61700439453125, -21.966699600219727",Carandotta Airport,small_airport,,138.61700439453125,-21.966699600219727,"[-21.966699600219727, 138.61700439453125]",Carandotta Airport |  | small_airport
55361,AU,"133.7100067138672, -32.13059997558594",Ceduna Airport,medium_airport,,133.7100067138672,-32.13059997558594,"[-32.13059997558594, 133.7100067138672]",Ceduna Airport |  | medium_airport
55362,AU,"146.83299255371094, -25.108299255371094",Caldervale Station Airport,small_airport,,146.83299255371094,-25.108299255371094,"[-25.108299255371094, 146.83299255371094]",Caldervale Station Airport |  | small_airport
55363,AU,"136.5050048828125, -33.70970153808594",Cleve Airport,medium_airport,,136.5050048828125,-33.70970153808594,"[-33.70970153808594, 136.5050048828125]",Cleve Airport |  | medium_airport
55364,AU,"148.0330047607422, -23.100000381469727",Capella Airport,small_airport,CAPELLA,148.0330047607422,-23.100000381469727,"[-23.100000381469727, 148.0330047607422]",Capella Airport | CAPELLA | small_airport
55365,AU,"145.4083709716797, -37.72766876220703",Coldstream Airport,small_airport,COLDSTREAM,145.4083709716797,-37.72766876220703,"[-37.72766876220703, 145.4083709716797]",Coldstream Airport | COLDSTREAM | small_airport
55366,AU,"144.25799560546875, -38.14830017089844",Ceres Airport,small_airport,,144.25799560546875,-38.14830017089844,"[-38.14830017089844, 144.25799560546875]",Ceres Airport |  | small_airport
55368,AU,"131.32699584960938, -17.021699905395508",Camfield Airport,small_airport,,131.32699584960938,-17.021699905395508,"[-17.021699905395508, 131.32699584960938]",Camfield Airport |  | small_airport
55369,AU,"142.504821, -36.925057",Dadswells Bridge Airport,small_airport,DADSWELLS_BRIDGE,142.504821,-36.925057,"[-36.925057, 142.504821]",Dadswells Bridge Airport | DADSWELLS_BRIDGE | small_airport
55370,AU,"138.891998291, -27.018299102800004",Clifton Hills Airport,small_airport,CLIFTON_HILLS,138.891998291,-27.018299102800004,"[-27.018299102800004, 138.891998291]",Clifton Hills Airport | CLIFTON_HILLS | small_airport
55371,AU,"145.311667, -14.970832",Cape Flattery Airport,small_airport,,145.311667,-14.970832,"[-14.970832, 145.311667]",Cape Flattery Airport |  | small_airport
